Time,x,y,z,wquat,xquat,yquat,zquat,xrot,yrot,zrot,,,,,,127.1532442,-1.122246215,4.673249402,,v_roll,v_pitch,v_yaw,V,,vxavg,vyavg,vzavg,avg speed,,Phase,GFO,Movement,,,,,,,,,,,,,,,,,,,,,,,,,,,
0,1.5,0,-1.64,0,0,1,0,0,180,0,,-180,0,-180,,-52.84675578,1.122246215,175.3267506,,,,,30,,,,,,,,,,,,,,,,,,,,,,,,,,,,,,,,,,,,
0,1.891119,1.779465,-2.052659,0.4426842,-0.896008,0.03448589,-0.003331871,307.5269,176.5644,186.1019,,127.5269,-3.4356,6.1019,,-0.373655777,-2.313353785,1.428650598,,#DIV/0!,#DIV/0!,#DIV/0!,#DIV/0!,,,,,,,,,,,,,,,,,,,,,,,,,,,,,,,,,,,,
0.02,1.891064,1.779588,-2.052346,0.4434179,-0.8956429,0.03457155,-0.003019853,307.4316,176.598,186.1016,,127.4316,-3.402,6.1016,,-0.278355777,-2.279753785,1.428350598,,-3.191223676,-2.723248677,4.445547409,6.112518603,,,,,,,,,,,,,,,,,,,,,,,,,,,,,,,,,,,,
0.0446685,1.891085,1.779623,-2.052084,0.4437895,-0.8954171,0.03559056,-0.003521046,307.3917,176.4222,186.3213,,127.3917,-3.5778,6.3213,,-0.238455777,-2.455553785,1.648050598,,0.230388507,-7.352544436,8.450165604,11.20349442,,,,,,,,,,,,,,,,,,,,,,,,,,,,,,,,,,,,
0.0591039,1.891106,1.779608,-2.052036,0.4435932,-0.8954929,0.03608226,-0.003946101,307.4217,176.3128,186.4367,,127.4217,-3.6872,6.4367,,-0.268455777,-2.564953785,1.763450598,,1.785250723,-5.173882742,6.03040982,8.14383358,,,,,,,,,,,,,,,,,,,,,,,,,,,,,,,,,,,,
0.0786043,1.891234,1.779586,-2.051786,0.4433863,-0.8955777,0.03650658,-0.004077953,307.4508,176.2588,186.516,,127.4508,-3.7412,6.516,,-0.297555777,-2.618953785,1.842750598,,0.893783602,0.083178626,0.800021113,1.2024149,,#DIV/0!,#DIV/0!,#DIV/0!,#DIV/0!,,,,,,,,,,,,,,,,,,,,,,,,,,,,,,,
0.0901184,1.891314,1.779707,-2.051506,0.4433481,-0.8956009,0.03641748,-0.003925277,307.4542,176.2926,186.4876,,127.4542,-3.7074,6.4876,,-0.300955777,-2.585153785,1.814350598,,0.518652817,5.33876219,-5.247306227,7.503706091,,#DIV/0!,#DIV/0!,#DIV/0!,#DIV/0!,,,,,,,,,,,,,,,,,,,,,,,,,,,,,,,
0.1124899,1.891414,1.77985,-2.051053,0.4431581,-0.8957267,0.03569132,-0.00327549,307.4708,176.4658,186.308,,127.4708,-3.5342,6.308,,-0.317555777,-2.411953785,1.634750598,,0.822525481,6.7075114,-6.964547584,9.704235179,,#DIV/0!,#DIV/0!,#DIV/0!,#DIV/0!,,,,,,,,,,,,,,,,,,,,,,,,,,,,,,,
0.1348589,1.891547,1.779949,-2.050726,0.4429577,-0.8958485,0.03515879,-0.002804962,307.491,176.5927,186.176,,127.491,-3.4073,6.176,,-0.337755777,-2.285053785,1.502750598,,1.696969544,2.451794101,-2.028920995,3.606594009,,0.108876079,-0.05849165,0.550068304,0.563782239,,,,,,,,,,,,,,,,,,,,,,,,,,,,,,,
0.1578626,1.891421,1.779868,-2.050725,0.4425173,-0.8960547,0.0354475,-0.00281027,307.5483,176.575,186.2184,,127.5483,-3.425,6.2184,,-0.395055777,-2.302753785,1.545150598,,1.543662554,-2.042217598,3.187067781,4.087902621,,0.252749312,-0.018456458,0.335126436,0.420157808,,,,,,,,,,,,,,,,,,,,,,,,,,,,,,,
0.1794916,1.891635,1.77997,-2.050302,0.442441,-0.8960721,0.03594219,-0.00300005,307.5612,176.5033,186.3164,,127.5612,-3.4967,6.3164,,-0.407955777,-2.374453785,1.643150598,,0.078490256,-0.703864696,1.694656692,1.836694731,,0.162828501,0.648979528,-0.419201002,0.789567621,,,,,,,,,,,,,,,,,,,,,,,,,,,,,,,
0.2015651,1.891343,1.779943,-2.050545,0.4425033,-0.8960437,0.03590362,-0.002762136,307.5515,176.5454,186.2912,,127.5515,-3.4546,6.2912,,-0.398255777,-2.332353785,1.617950598,,-0.233331168,3.006577763,-2.519417179,3.929556744,,-0.02603936,1.281491165,-1.038362777,1.649574161,,,,,,,,,,,,,,,,,,,,,,,,,,,,,,,
0.2236066,1.891774,1.780064,-2.04993,0.4424775,-0.8960703,0.03558135,-0.002385843,307.5509,176.6359,186.2053,,127.5509,-3.3641,6.2053,,-0.397655777,-2.241853785,1.532050598,,-0.378817587,3.148566273,-3.130415559,4.456060358,,-0.111775745,1.367235769,-1.051001371,1.728129436,,,,,,,,,,,,,,,,,,,,,,,,,,,,,,,
0.2456489,1.892179,1.780265,-2.049287,0.4425877,-0.8960254,0.03535343,-0.002200654,307.5348,176.6842,186.1532,,127.5348,-3.3158,6.1532,,-0.381555777,-2.193553785,1.479950598,,-0.89556261,-0.253375372,-0.167320738,0.945636134,,-0.127956549,0.987343648,-0.455117522,1.094692795,,,,,,,,,,,,,,,,,,,,,,,,,,,,,,,
0.2683695,1.892563,1.780406,-2.048674,0.4427958,-0.8959174,0.035466,-0.002489756,307.5107,176.6229,186.1993,,127.5107,-3.3771,6.1993,,-0.357455777,-2.254853785,1.526050598,,-1.455399421,-3.247648277,2.600947816,4.40798552,,-0.115895584,0.581549879,0.105959951,0.602378253,,,,,,,,,,,,,,,,,,,,,,,,,,,,,,,
0.2899901,1.892829,1.780486,-2.048151,0.4431344,-0.8957409,0.03566731,-0.002844526,307.4707,176.5408,186.2679,,127.4707,-3.4592,6.2679,,-0.317455777,-2.336953785,1.594650598,,-1.320871637,-2.202791185,1.651303123,3.053488643,,-0.189155139,0.536050261,0.032728419,0.569386247,,,,,,,,,,,,,,,,,,,,,,,,,,,,,,,
0.3123483,1.893165,1.780702,-2.047637,0.443277,-0.8956715,0.0356299,-0.002929688,307.453,176.5272,186.2708,,127.453,-3.4728,6.2708,,-0.299755777,-2.350553785,1.597550598,,-0.938582045,1.324123375,-1.356091089,2.114999293,,-0.283847847,0.862184554,-0.538190472,1.055263375,,,,,,,,,,,,,,,,,,,,,,,,,,,,,,,
0.3338129,1.893194,1.78076,-2.04754,0.4434353,-0.8956027,0.03541344,-0.002606709,307.4297,176.5971,186.2098,,127.4297,-3.4029,6.2098,,-0.276455777,-2.280653785,1.536550598,,-0.670031472,3.048768548,-2.018693261,3.717398865,,-0.32657438,0.94451136,-0.845326086,1.308941834,,,,,,,,,,,,,,,,,,,,,,,,,,,,,,,
0.3558121,1.893424,1.780828,-2.047281,0.4434593,-0.8955906,0.03544666,-0.002217517,307.4241,176.6596,186.1835,,127.4241,-3.3404,6.1835,,-0.270855777,-2.218153785,1.510250598,,-0.220789401,1.197858473,0.635719397,1.373954888,,-0.469492517,0.467902119,-0.475940747,0.816011771,,,,,,,,,,,,,,,,,,,,,,,,,,,,,,,
0.3782691,1.893665,1.780935,-2.047033,0.4434963,-0.8955569,0.03583923,-0.002078783,307.4199,176.6496,186.2389,,127.4199,-3.3504,6.2389,,-0.266655777,-2.228153785,1.565650598,,0.30830237,0.400164617,2.499183815,2.549725831,,-0.510736094,-0.189237073,0.231949026,0.59199863,,,,,,,,,,,,,,,,,,,,,,,,,,,,,,,
0.4006675,1.893959,1.780986,-2.046807,0.4433483,-0.8956086,0.03639804,-0.001651337,307.4379,176.6775,186.2956,,127.4379,-3.3225,6.2956,,-0.284655777,-2.200253785,1.622350598,,0.979318025,1.432192402,0.329459557,1.766007494,,-0.391722695,-0.505729392,0.663834658,0.921892261,,,,,,,,,,,,,,,,,,,,,,,,,,,,,,,
0.412096,1.894075,1.780998,-2.046764,0.4432388,-0.8956665,0.03630869,-0.001596277,307.4511,176.696,186.2742,,127.4511,-3.304,6.2742,,-0.297855777,-2.181753785,1.600950598,,0.744595334,1.860299063,-2.980930902,3.591807882,,-0.244146525,-0.252695398,0.539693688,0.643996713,,,,,,,,,,,,,,,,,,,,,,,,,,,,,,,
0.423467,1.894197,1.781017,-2.04668,0.4432014,-0.8956959,0.03603908,-0.001591602,307.4549,176.7199,186.2277,,127.4549,-3.2801,6.2277,,-0.301655777,-2.157853785,1.554450598,,0.312657348,2.197528221,-4.234877812,4.781325651,,-0.209304215,0.118945602,0.282206684,0.370940592,,,,,,,,,,,,,,,,,,,,,,,,,,,,,,,
0.4457937,1.894499,1.781033,-2.046551,0.443133,-0.8957523,0.03547566,-0.001572766,307.4614,176.7711,186.1299,,127.4614,-3.2289,6.1299,,-0.308155777,-2.106653785,1.456650598,,-0.476954671,0.366383781,-2.298106279,2.375503169,,-0.161242809,0.011763663,0.445003026,0.473461002,,,,,,,,,,,,,,,,,,,,,,,,,,,,,,,
0.4578415,1.894674,1.781084,-2.046469,0.4432562,-0.895695,0.03537618,-0.001722014,307.4464,176.7523,186.1273,,127.4464,-3.2477,6.1273,,-0.293155777,-2.125453785,1.454050598,,-2.091266948,-3.189342372,2.282592225,4.44471928,,0.011227809,-0.519503728,0.905421919,1.043934403,,,,,,,,,,,,,,,,,,,,,,,,,,,,,,,
0.4793224,1.894951,1.781131,-2.04616,0.4437824,-0.8954188,0.03575014,-0.002100177,307.3833,176.6488,186.23,,127.3833,-3.3512,6.23,,-0.230055777,-2.228953785,1.556750598,,-0.914984097,-5.39424322,6.072151493,8.173498612,,0.139794633,-0.908999601,1.082933593,1.420763169,,,,,,,,,,,,,,,,,,,,,,,,,,,,,,,
0.4908797,1.895151,1.781149,-2.046113,0.443706,-0.8954398,0.03615425,-0.002316121,307.3961,176.5798,186.3151,,127.3961,-3.4202,6.3151,,-0.242855777,-2.297953785,1.641850598,,0.65161158,-4.367775525,5.447192473,7.012415171,,0.220764881,-1.01329778,0.901444828,1.374085988,,,,,,,,,,,,,,,,,,,,,,,,,,,,,,,
0.5026325,1.895122,1.781175,-2.046177,0.443699,-0.895435,0.0363536,-0.002410696,307.3984,176.5473,186.3566,,127.3984,-3.4527,6.3566,,-0.245155777,-2.330453785,1.683350598,,0.46309079,0.041793651,0.987115207,1.091144455,,0.272230136,-0.971338647,0.681708081,1.217511364,,,,,,,,,,,,,,,,,,,,,,,,,,,,,,,
0.5245358,1.895417,1.781267,-2.046146,0.4435533,-0.8955088,0.03633556,-0.002064396,307.4144,176.6097,186.3225,,127.4144,-3.3903,6.3225,,-0.261155777,-2.268053785,1.649250598,,-0.867921608,2.628541811,-1.696027934,3.246387334,,0.309288938,-0.981925492,0.740807187,1.268318811,,,,,,,,,,,,,,,,,,,,,,,,,,,,,,,
0.536578,1.895638,1.781273,-2.046108,0.4437756,-0.8954019,0.03626249,-0.001906799,307.3847,176.6387,186.3004,,127.3847,-3.3613,6.3004,,-0.231455777,-2.239053785,1.627150598,,-0.313783773,-0.069241831,0.760261357,0.825379924,,0.32344116,-1.231758086,1.14915745,1.715343992,,,,,,,,,,,,,,,,,,,,,,,,,,,,,,,
0.5583318,1.895796,1.781241,-2.046275,0.4434826,-0.8955315,0.03663615,-0.002078783,307.4247,176.5833,186.3734,,127.4247,-3.4167,6.3734,,-0.271455777,-2.294453785,1.700150598,,1.572086572,-3.857707536,3.966752352,5.752259368,,0.364891501,-1.584165072,1.691878925,2.346311804,,,,,,,,,,,,,,,,,,,,,,,,,,,,,,,
0.5810066,1.895898,1.781137,-2.046439,0.4432915,-0.8956095,0.03700704,-0.002609565,307.4543,176.4661,186.4772,,127.4543,-3.5339,6.4772,,-0.301055777,-2.411653785,1.803950598,,1.45057931,-3.865587878,2.943371163,5.070540778,,0.416346846,-1.751699121,1.967845217,2.667247515,,,,,,,,,,,,,,,,,,,,,,,,,,,,,,, 
0.6026266,1.896421,1.781395,-2.046212,0.4430409,-0.8957314,0.03703039,-0.002952487,307.4888,176.4107,186.5055,,127.4888,-3.5893,6.5055,,-0.335555777,-2.467053785,1.832250598,,1.360915589,-0.955711713,0.139829867,1.668840469,,0.33271068,-1.745140004,1.926273685,2.620446591,,,,,,,,,,,,,,,,,,,,,,,,,,,,,,,
0.6139934,1.896616,1.781407,-2.046207,0.4429378,-0.8957849,0.0369732,-0.002947436,307.5016,176.4181,186.4938,,127.5016,-3.5819,6.4938,,-0.348355777,-2.459653785,1.820550598,,1.648366341,1.97766113,-2.527118162,3.607572777,,0.145006097,-2.069039683,2.133721291,2.975687908,,,,,,,,,,,,,,,,,,,,,,,,,,,,,,,
0.6253725,1.896578,1.781413,-2.046468,0.4427317,-0.8958954,0.03677155,-0.002844527,307.5263,176.4557,186.448,,127.5263,-3.5443,6.448,,-0.373055777,-2.422053785,1.774750598,,1.226359757,1.722670084,-2.212642515,3.060610621,,0.037187771,-2.702444494,2.6157437,3.76121048,,,,,,,,,,,,,,,,,,,,,,,,,,,,,,,
0.6473526,1.896875,1.78141,-2.046671,0.4426826,-0.8959217,0.03671781,-0.002857593,307.5325,176.4588,186.4392,,127.5325,-3.5412,6.4392,,-0.379255777,-2.418953785,1.765950598,,0.496636233,-1.050295495,1.073675607,1.58194421,,0.116665358,-3.116241271,2.921648625,4.273242464,,,,,,,,,,,,,,,,,,,,,,,,,,,,,,,
0.6584606,1.897096,1.781447,-2.046663,0.4426293,-0.8959425,0.03684644,-0.002947436,307.5404,176.4339,186.4675,,127.5404,-3.5661,6.4675,,-0.387155777,-2.443853785,1.794250598,,0.06189977,-4.214907047,4.757272887,6.356171671,,0.190327925,-3.015260804,2.754838571,4.088662127,,,,,,,,,,,,,,,,,,,,,,,,,,,,,,,
0.6804218,1.89747,1.78144,-2.04679,0.4427784,-0.8958396,0.03751175,-0.003411423,307.5275,176.298,186.6205,,127.5275,-3.702,6.6205,,-0.374255777,-2.579753785,1.947250598,,-1.422347464,-5.367284998,5.870154029,8.080193617,,0.143980731,-2.727572005,2.457935772,3.674483331,,,,,,,,,,,,,,,,,,,,,,,,,,,,,,,
0.7024393,1.897319,1.781261,-2.047376,0.4432026,-0.895611,0.03792243,-0.003758497,307.4778,176.1979,186.7256,,127.4778,-3.8021,6.7256,,-0.324555777,-2.679853785,2.052350598,,-2.002254264,-5.308974705,5.531721573,7.924277767,,0.132373928,-2.821172081,2.640316923,3.866239545,,,,,,,,,,,,,,,,,,,,,,,,,,,,,,,
0.7138861,1.897554,1.781296,-2.047335,0.443384,-0.8955082,0.03820625,-0.00401164,307.4578,176.1284,186.7976,,127.4578,-3.8716,6.7976,,-0.304555777,-2.749353785,2.124350598,,-1.788547988,-8.578471351,8.144011349,11.96302618,,0.131488634,-3.191553734,3.112350919,4.459824295,,,,,,,,,,,,,,,,,,,,,,,,,,,,,,,
0.7251983,1.897104,1.781033,-2.047998,0.4435915,-0.8953862,0.0385943,-0.004541278,307.4371,176.003,186.9107,,127.4371,-3.997,6.9107,,-0.283855777,-2.874753785,2.237450598,,-0.938547453,-8.192468889,7.253406523,10.98222764,,0.08324852,-3.565070497,3.544028036,5.027603075,,,,,,,,,,,,,,,,,,,,,,,,,,,,,,,
0.7421431,1.897203,1.781092,-2.048108,0.4436314,-0.8953535,0.0388433,-0.004946484,307.4363,175.9132,186.9871,,127.4363,-4.0868,6.9871,,-0.283055777,-2.964553785,2.313850598,,0.165287024,-2.750816301,2.280736099,3.577159107,,0.012128216,-3.763572062,3.758412295,5.318861226,,,,,,,,,,,,,,,,,,,,,,,,,,,,,,,
0.7535252,1.8974,1.781135,-2.048153,0.4435988,-0.8953696,0.03884177,-0.004964526,307.4406,175.9109,186.9877,,127.4406,-4.0891,6.9877,,-0.287355777,-2.966853785,2.314450598,,0.643829598,1.243504249,-1.408269349,1.98596121,,-0.03905735,-3.728410462,3.676355416,5.236235212,,,,,,,,,,,,,,,,,,,,,,,,,,,,,,,
0.7757261,1.897329,1.780941,-2.048774,0.4434187,-0.8954711,0.03858446,-0.004757611,307.4608,175.9706,186.924,,127.4608,-4.0294,6.924,,-0.307555777,-2.907153785,2.250750598,,0.969573047,-0.117753152,0.10701596,0.982542678,,-0.044871141,-3.543212008,3.387921802,4.902487011,,,,,,,,,,,,,,,,,,,,,,,,,,,,,,,
0.7977805,1.897346,1.780795,-2.049381,0.4432661,-0.8955326,0.0388782,-0.005012321,307.4835,175.9061,186.992,,127.4835,-4.0939,6.992,,-0.330255777,-2.971653785,2.318750598,,1.29969087,-5.08238886,5.314326131,7.467391453,,0.050955447,-3.284839081,3.039827229,4.475859004,,,,,,,,,,,,,,,,,,,,,,,,,,,,,,,
0.8203904,1.897848,1.780848,-2.049448,0.4430535,-0.8956024,0.03959728,-0.005653582,307.519,175.7424,187.1626,,127.519,-4.2576,7.1626,,-0.365755777,-3.135353785,2.489350598,,1.349406769,-5.770673212,6.276271814,8.632100314,,0.203978766,-2.939254503,2.648205554,3.961542254,,,,,,,,,,,,,,,,,,,,,,,,,,,,,,,
0.8419195,1.898361,1.78091,-2.049419,0.4429013,-0.8956535,0.04009503,-0.005976461,307.5433,175.6498,187.2704,,127.5433,-4.3502,7.2704,,-0.390055777,-3.227953785,2.597150598,,1.021244856,-2.878056786,3.084684354,4.340671547,,0.413711374,-2.296704355,1.989048766,3.066320758,,,,,,,,,,,,,,,,,,,,,,,,,,,,,,,
0.8531913,1.898546,1.780925,-2.049497,0.4428275,-0.8956874,0.04013961,-0.00606064,307.5536,175.6334,187.2835,,127.5536,-4.3666,7.2835,,-0.400355777,-3.244353785,2.610250598,,0.301795812,-0.857850259,0.574352856,1.075578441,,0.600317553,-1.672810311,1.355110203,2.234949476,,,,,,,,,,,,,,,,,,,,,,,,,,,,,,,
0.8754355,1.898934,1.780983,-2.049572,0.4428834,-0.8956608,0.04011139,-0.006102295,307.5467,175.6276,187.2832,,127.5467,-4.3724,7.2832,,-0.393455777,-3.250153785,2.609950598,,-0.168776126,-0.593194698,0.006936185,0.616776654,,0.759696889,-1.529320321,1.248677271,2.115456201,,,,,,,,,,,,,,,,,,,,,,,,,,,,,,,
0.8973661,1.899046,1.780906,-2.04999,0.4428948,-0.8956574,0.04003627,-0.006259006,307.5461,175.6073,187.2838,,127.5461,-4.3927,7.2838,,-0.392855777,-3.270453785,2.610550598,,-0.013679516,-1.807327144,1.007635906,2.069286992,,0.957534069,-1.79376896,1.620059251,2.599821254,,,,,,,,,,,,,,,,,,,,,,,,,,,,,,,
0.9086342,1.899217,1.780929,-2.050053,0.4429067,-0.8956478,0.04009522,-0.006408401,307.5461,175.577,187.3062,,127.5461,-4.423,7.3062,,-0.392855777,-3.300753785,2.632950598,,-0.176601823,-2.008436947,1.344924571,2.423598414,,1.142712717,-1.96408231,1.913882542,2.970918723,,,,,,,,,,,,,,,,,,,,,,,,,,,,,,,
0.9310009,1.899438,1.780874,-2.050304,0.4429795,-0.8956104,0.04009838,-0.006574821,307.5382,175.5473,187.3219,,127.5382,-4.4527,7.3219,,-0.384955777,-3.330453785,2.648650598,,-0.012951112,-0.816375195,0.440639803,0.927792879,,1.30902316,-1.543937929,1.60223097,2.581555741,,,,,,,,,,,,,,,,,,,,,,,,,,,,,,,
0.9533045,1.899883,1.780843,-2.050255,0.4429255,-0.8956364,0.0401073,-0.006617742,307.5455,175.5405,187.3259,,127.5455,-4.4595,7.3259,,-0.392255777,-3.337253785,2.652650598,,0.937975909,-0.225319424,-0.425026892,1.054142072,,1.452761046,-0.880583929,1.032477528,1.98795185,,,,,,,,,,,,,,,,,,,,,,,,,,,,,,,
0.9752591,1.899956,1.780775,-2.050837,0.4426601,-0.8957742,0.03993752,-0.006751493,307.5795,175.5373,187.3033,,127.5795,-4.4627,7.3033,,-0.426255777,-3.340453785,2.630050598,,1.48733288,-0.081846316,-0.987794806,1.787343418,,1.599009158,-0.371671819,0.66548871,1.771396469,,,,,,,,,,,,,,,,,,,,,,,,,,,,,,,
0.997559,1.900252,1.780744,-2.051175,0.4424114,-0.895903,0.03978837,-0.006856615,307.6113,175.5369,187.2822,,127.6113,-4.4631,7.2822,,-0.458055777,-3.340853785,2.608950598,,2.237218399,-0.885446432,0.897107993,2.56787155,,1.744613074,-0.050277171,0.549041528,1.829658211,,,,,,,,,,,,,,,,,,,,,,,,,,,,,,,
1.019636,1.900493,1.780659,-2.051773,0.441903,-0.8961368,0.04014907,-0.006969776,307.6786,175.4982,187.3427,,127.6786,-4.5018,7.3427,,-0.525355777,-3.379553785,2.669450598,,3.215712932,-2.194328053,3.419696387,5.181718696,,1.873389865,0.045492363,0.693873406,1.99827912,,,,,,,,,,,,,,,,,,,,,,,,,,,,,,,
1.041983,1.901015,1.780652,-2.052056,0.4413396,-0.8963892,0.04068056,-0.007127276,307.7542,175.4393,187.4343,,127.7542,-4.5607,7.4343,,-0.600955777,-3.438453785,2.761050598,,3.376895473,-2.331826703,3.926718739,5.679785108,,2.029539095,0.063205349,0.907582752,2.224124616,,,,,,,,,,,,,,,,,,,,,,,,,,,,,,,
1.063877,1.90141,1.780701,-2.052392,0.4407851,-0.896638,0.04119398,-0.007207319,307.828,175.3949,187.5165,,127.828,-4.6051,7.5165,,-0.674755777,-3.482853785,2.843250598,,3.461726621,0.379488086,1.2628557,3.704371327,,2.177113772,0.010143419,1.14884262,2.461659324,,,,,,,,,,,,,,,,,,,,,,,,,,,,,,,
1.075108,1.901628,1.780714,-2.052573,0.4404618,-0.8967966,0.0412287,-0.007042093,307.8679,175.4262,187.5027,,127.8679,-4.5738,7.5027,,-0.714655777,-3.451553785,2.829450598,,3.217999288,2.852928788,-1.130522935,4.446662141,,2.266516369,-0.197571246,1.490420299,2.719831524,,,,,,,,,,,,,,,,,,,,,,,,,,,,,,,
1.086345,1.901968,1.780797,-2.052654,0.4401961,-0.896926,0.04128251,-0.00685118,307.9003,175.459,187.4911,,127.9003,-4.541,7.4911,,-0.747055777,-3.418753785,2.817850598,,2.922470313,3.73780065,-1.686170279,5.035390416,,2.285707152,-0.427379105,1.865938294,2.981415067,,,,,,,,,,,,,,,,,,,,,,,,,,,,,,,
1.108225,1.901994,1.780594,-2.05341,0.4396514,-0.8971963,0.0413002,-0.006309984,307.9651,175.5587,187.4399,,127.9651,-4.4413,7.4399,,-0.811855777,-3.319053785,2.766650598,,2.194646722,3.32028016,-0.939460509,4.089415682,,2.234900085,-0.623642079,2.263443816,3.241432668,,,,,,,,,,,,,,,,,,,,,,,,,,,,,,,
1.119502,1.902041,1.780566,-2.053696,0.4395173,-0.8972569,0.04144013,-0.006116929,307.9812,175.5822,187.4451,,127.9812,-4.4178,7.4451,,-0.827955777,-3.295553785,2.771850598,,1.505322155,0.65180925,1.889750598,2.502400329,,2.130888075,-0.614185036,2.354245848,3.23425119,,,,,,,,,,,,,,,,,,,,,,,,,,,,,,,
1.141802,1.902305,1.780486,-2.054289,0.4392514,-0.8973632,0.04197231,-0.005992645,308.0165,175.5648,187.5191,,128.0165,-4.4352,7.5191,,-0.863255777,-3.312953785,2.845850598,,2.016260474,-1.577058326,3.785857413,4.570025778,,1.988478656,-0.167508309,1.903275507,2.757637405,,,,,,,,,,,,,,,,,,,,,,,,,,,,,,,
1.164255,1.902976,1.780505,-2.054399,0.4388464,-0.8975337,0.04254689,-0.006080278,308.0715,175.5115,187.6146,,128.0715,-4.4885,7.6146,,-0.918255777,-3.366253785,2.941350598,,1.74186898,-2.698242039,4.481302848,5.513319586,,1.899159528,0.265510642,1.453670879,2.406337848,,,,,,,,,,,,,,,,,,,,,,,,,,,,,,,
1.186785,1.903268,1.780473,-2.054937,0.4386962,-0.8975782,0.04313022,-0.006223192,308.0948,175.4434,187.7207,,128.0948,-4.5566,7.7207,,-0.941555777,-3.434353785,3.047450598,,1.149282653,-3.516665836,4.881149635,6.124819261,,1.860940886,0.066877848,1.654857701,2.491210075,,,,,,,,,,,,,,,,,,,,,,,,,,,,,,,
1.208851,1.903688,1.780387,-2.055223,0.438518,-0.8976367,0.04368088,-0.006508763,308.1227,175.3549,187.8322,,128.1227,-4.6451,7.8322,,-0.969455777,-3.522853785,3.158950598,,1.187456092,-3.212821593,4.456707039,5.620899589,,1.858821895,-0.550962426,2.282095715,2.994451416,,,,,,,,,,,,,,,,,,,,,,,,,,,,,,,
1.220197,1.903526,1.78029,-2.055814,0.4384324,-0.8976661,0.04392632,-0.006564614,308.1353,175.3275,187.876,,128.1353,-4.6725,7.876,,-0.982055777,-3.550253785,3.202750598,,0.826841,-2.633264974,4.179776979,5.008820825,,1.856514338,-1.104549064,2.79929217,3.535917246,,,,,,,,,,,,,,,,,,,,,,,,,,,,,,,
1.24229,1.9041,1.780368,-2.05593,0.4383681,-0.8976698,0.04447147,-0.006686066,308.1473,175.2645,187.9754,,128.1473,-4.7355,7.9754,,-0.994055777,-3.613253785,3.302150598,,0.885062278,-0.762504879,2.07753441,2.383463478,,1.830819199,-1.252873224,2.829873287,3.595799365,,,,,,,,,,,,,,,,,,,,,,,,,,,,,,,
1.264377,1.904569,1.780361,-2.056207,0.4381447,-0.8977768,0.04453911,-0.006505328,308.1744,175.2938,187.9678,,128.1744,-4.7062,7.9678,,-1.021155777,-3.583953785,3.294550598,,1.364390485,3.612469399,-2.442918049,4.569392208,,1.832256666,-1.122511688,2.542550504,3.328927762,,,,,,,,,,,,,,,,,,,,,,,,,,,,,,,
1.286417,1.905083,1.780403,-2.056479,0.4378306,-0.8979475,0.04427065,-0.005892343,308.2075,175.4238,187.8677,,128.2075,-4.5762,7.8677,,-1.054255777,-3.453953785,3.194450598,,2.215746803,3.297419654,-1.91814142,4.411550383,,1.782405073,-1.135545864,2.474858435,3.254436438,,,,,,,,,,,,,,,,,,,,,,,,,,,,,,,
1.308672,1.905669,1.780363,-2.056752,0.4373156,-0.8981885,0.04449074,-0.005755457,308.2727,175.4393,187.8834,,128.2727,-4.5607,7.8834,,-1.119455777,-3.438453785,3.210150598,,2.964884273,-2.202738229,3.878284381,5.355715097,,1.712692796,-1.362513229,2.656821385,3.44215903,,,,,,,,,,,,,,,,,,,,,,,,,,,,,,,
1.330938,1.906431,1.78044,-2.056756,0.4368462,-0.8983729,0.04532674,-0.006093743,308.3395,175.3257,188.0404,,128.3395,-4.6743,8.0404,,-1.186255777,-3.552053785,3.367150598,,3.190452412,-5.178994775,7.023571246,9.291476014,,1.602780779,-1.673511189,2.899046,3.711335829,,,,,,,,,,,,,,,,,,,,,,,,,,,,,,,
1.34203,1.907081,1.780611,-2.056452,0.4365801,-0.8984802,0.0457355,-0.006281582,308.377,175.2674,188.118,,128.377,-4.7326,8.118,,-1.223755777,-3.610353785,3.444750598,,2.892472064,-3.458825646,5.037383637,6.760554962,,1.383658533,-1.789142707,2.939009979,3.708547185,,,,,,,,,,,,,,,,,,,,,,,,,,,,,,,
1.364117,1.907547,1.780571,-2.056609,0.4361832,-0.8986508,0.04615986,-0.00634883,308.4301,175.2307,188.186,,128.4301,-4.7693,8.186,,-1.276855777,-3.647053785,3.512750598,,1.860609919,1.392066076,-0.541905989,2.386080328,,1.123412195,-1.388655558,2.423928424,3.010954703,,,,,,,,,,,,,,,,,,,,,,,,,,,,,,,
1.386363,1.908026,1.780667,-2.056754,0.4359093,-0.8988034,0.04582744,-0.005946466,308.4594,175.3296,188.0934,,128.4594,-4.6704,8.0934,,-1.306155777,-3.548153785,3.420150598,,1.524009227,2.346509223,-1.845445581,3.351772524,,0.784940883,-0.554329597,1.46417029,1.751344663,,,,,,,,,,,,,,,,,,,,,,,,,,,,,,,
1.408201,1.90826,1.780628,-2.057144,0.4356125,-0.8989413,0.04595149,-0.005891078,308.4972,175.335,188.1037,,128.4972,-4.665,8.1037,,-1.343955777,-3.542753785,3.430450598,,1.368189762,-1.746502621,2.905860525,3.655986873,,0.387709667,-0.13772218,0.94253911,1.028428976,,,,,,,,,,,,,,,,,,,,,,,,,,,,,,,
1.430579,1.908741,1.780702,-2.057168,0.4354767,-0.8989731,0.04658402,-0.006109616,308.5197,175.2513,188.2232,,128.5197,-4.7487,8.2232,,-1.366455777,-3.626453785,3.549950598,,0.835609382,-5.648817779,6.846821192,8.915511527,,-0.020672058,-0.450868061,1.188679635,1.271482841,,,,,,,,,,,,,,,,,,,,,,,,,,,,,,,
1.452809,1.909233,1.780837,-2.057006,0.4354395,-0.8989434,0.04741139,-0.006732706,308.5345,175.0833,188.4089,,128.5345,-4.9167,8.4089,,-1.381255777,-3.794453785,3.735650598,,-0.279573569,-7.559639314,8.030069628,11.03214966,,-0.441034383,-0.74766613,1.438845483,1.680414322,,,,,,,,,,,,,,,,,,,,,,,,,,,,,,,
1.474933,1.909419,1.780826,-2.056955,0.4357316,-0.8987604,0.0480957,-0.007376926,308.5074,174.916,188.5794,,128.5074,-5.084,8.5794,,-1.354155777,-3.961753785,3.906150598,,-1.661133107,-4.716031326,4.976238771,7.054308398,,-0.860058224,-0.594074674,1.210488904,1.599346195,,,,,,,,,,,,,,,,,,,,,,,,,,,,,,,
1.486376,1.909592,1.780885,-2.056851,0.4359305,-0.898658,0.04820031,-0.00742926,308.4834,174.8946,188.6051,,128.4834,-5.1054,8.6051,,-1.330155777,-3.983153785,3.931850598,,-2.556361399,2.573067957,-2.51628324,4.414447152,,-1.268889138,-0.094992071,0.630725282,1.420182214,,,,,,,,,,,,,,,,,,,,,,,,,,,,,,,
1.508496,1.90996,1.780993,-2.056516,0.4363767,-0.8984845,0.04748708,-0.006774628,308.4167,175.0498,188.4441,,128.4167,-4.9502,8.4441,,-1.263455777,-3.827953785,3.770850598,,-3.515064778,10.08373262,-10.39932133,14.90581189,,-1.64818789,0.396817146,0.085686833,1.697447909,,,,,,,,,,,,,,,,,,,,,,,,,,,,,,,
1.519879,1.909851,1.780924,-2.056679,0.4366641,-0.8983842,0.04682299,-0.006153361,308.371,175.1995,188.2902,,128.371,-4.8005,8.2902,,-1.217755777,-3.678253785,3.616950598,,-3.799615324,9.028365825,-9.224123385,13.45484739,,-2.023083326,0.710149171,-0.298188046,2.164738806,,,,,,,,,,,,,,,,,,,,,,,,,,,,,,,
1.542058,1.910191,1.781009,-2.056376,0.4372352,-0.898135,0.04633369,-0.005660167,308.2915,175.3083,188.1809,,128.2915,-4.6917,8.1809,,-1.138255777,-3.569453785,3.507650598,,-3.093215621,-0.773476798,1.281685393,3.436417711,,-2.335035922,0.982532277,-0.671878448,2.620912643,,,,,,,,,,,,,,,,,,,,,,,,,,,,,,,
1.564003,1.910384,1.780984,-2.056261,0.4377475,-0.8978454,0.0470473,-0.006101074,308.2344,175.1667,188.3453,,128.2344,-4.8333,8.3453,,-1.081155777,-3.711053785,3.672050598,,-2.499825945,-6.06111313,7.130440413,9.686557831,,-2.562793817,1.255092567,-0.997114562,3.022814408,,,,,,,,,,,,,,,,,,,,,,,,,,,,,,,
1.575097,1.910567,1.781016,-2.056117,0.4379855,-0.8977107,0.04737885,-0.00628751,308.2078,175.1038,188.4204,,128.2078,-4.8962,8.4204,,-1.054555777,-3.773953785,3.747150598,,-2.256857521,-3.182305844,4.054935715,5.626986761,,-2.691447556,1.586058295,-1.345129159,3.401300239,,,,,,,,,,,,,,,,,,,,,,,,,,,,,,,
1.597403,1.910723,1.780924,-2.05594,0.4383623,-0.8975192,0.04752519,-0.006259006,308.1606,175.0883,188.4503,,128.1606,-4.9117,8.4503,,-1.007355777,-3.789453785,3.777050598,,-2.42232982,3.029248194,-2.499543443,4.614297758,,-2.702259509,1.753614383,-1.542281656,3.571554643,,,,,,,,,,,,,,,,,,,,,,,,,,,,,,,
1.619392,1.91087,1.780949,-2.055725,0.4387618,-0.8973579,0.04696488,-0.005585968,308.1006,175.2368,188.3109,,128.1006,-4.7632,8.3109,,-0.947355777,-3.640953785,3.637650598,,-3.070273858,7.785585898,-7.627405837,11.32339389,,-2.674151148,1.386377715,-1.193649241,3.240050315,,,,,,,,,,,,,,,,,,,,,,,,,,,,,,,
1.630676,1.911022,1.780986,-2.055557,0.4390175,-0.8972577,0.04653521,-0.005164599,308.0621,175.3363,188.2103,,128.0621,-4.6637,8.2103,,-0.908855777,-3.541453785,3.537050598,,-3.349631437,6.419825537,-6.835818999,9.958042582,,-2.576041987,0.453189925,-0.259257982,2.628419321,,,,,,,,,,,,,,,,,,,,,,,,,,,,,,,
1.64184,1.911022,1.780907,-2.05556,0.4392835,-0.8971423,0.0462698,-0.004989975,308.0254,175.3812,188.1572,,128.0254,-4.6188,8.1572,,-0.872155777,-3.496553785,3.483950598,,-2.687193987,1.794477766,-1.952114701,3.775170696,,-2.409150138,-0.421887298,0.622498454,2.523786363,,,,,,,,,,,,,,,,,,,,,,,,,,,,,,,
1.663785,1.911281,1.78094,-2.055369,0.4396453,-0.8969609,0.04635281,-0.004960022,307.9796,175.3717,188.1759,,127.9796,-4.6283,8.1759,,-0.826355777,-3.506053785,3.502650598,,-2.125243249,-2.105534011,2.61875171,3.975901515,,-2.279439733,-0.560907667,0.748237153,2.463802294,,,,,,,,,,,,,,,,,,,,,,,,,,,,,,,
1.686018,1.911711,1.78099,-2.055031,0.440059,-0.8967352,0.04676472,-0.005209128,307.9315,175.2877,188.2734,,127.9315,-4.7123,8.2734,,-0.778255777,-3.590053785,3.600150598,,-1.952072187,-3.257084847,3.505879865,5.168208698,,-2.174857248,-0.290757736,0.431408715,2.236215014,,,,,,,,,,,,,,,,,,,,,,,,,,,,,,,
1.708825,1.912062,1.781045,-2.054794,0.4403979,-0.8965567,0.04696979,-0.00543864,307.8918,175.2253,188.3333,,127.8918,-4.7747,8.3333,,-0.738555777,-3.652453785,3.660050598,,-1.801688495,-2.537802186,2.413256307,3.938315296,,-2.08931769,-0.281163882,0.382906165,2.142642917,,,,,,,,,,,,,,,,,,,,,,,,,,,,,,,
1.731051,1.912066,1.78097,-2.054965,0.4407439,-0.8963773,0.04712721,-0.005627163,307.8504,175.1733,188.3822,,127.8504,-4.8267,8.3822,,-0.697155777,-3.704453785,3.708950598,,-2.190952708,-2.201008732,2.015938159,3.702528848,,-1.962240603,-0.736858925,0.823263587,2.251913007,,,,,,,,,,,,,,,,,,,,,,,,,,,,,,,
1.753161,1.91288,1.781153,-2.054235,0.4411991,-0.8961467,0.0472349,-0.005786442,307.7947,175.1277,188.4227,,127.7947,-4.8723,8.4227,,-0.641455777,-3.750053785,3.749450598,,-2.239645679,-2.047708647,1.747765041,3.501971746,,-1.760407764,-1.481446775,1.597857844,2.801226469,,,,,,,,,,,,,,,,,,,,,,,,,,,,,,,
1.775099,1.913384,1.781306,-2.053831,0.4415549,-0.8959656,0.04732236,-0.005962732,307.7517,175.0831,188.4592,,127.7517,-4.9169,8.4592,,-0.598455777,-3.794653785,3.785950598,,-1.630021287,-2.34763808,2.238710279,3.630454195,,-1.518865175,-1.956564723,2.136801645,3.27124108,,,,,,,,,,,,,,,,,,,,,,,,,,,,,,,
1.78633,1.91362,1.781333,-2.053661,0.4416828,-0.8958954,0.0474447,-0.006064327,307.7371,175.0532,188.4908,,127.7371,-4.9468,8.4908,,-0.583855777,-3.824553785,3.817550598,,-1.406980362,-2.580741587,2.916288478,4.140598914,,-1.288359923,-2.111208963,2.336385942,3.402318893,,,,,,,,,,,,,,,,,,,,,,,,,,,,,,,
1.808457,1.913846,1.781284,-2.053577,0.4419698,-0.8957375,0.04773324,-0.006213607,307.7036,174.9979,188.5576,,127.7036,-5.0021,8.5576,,-0.550355777,-3.879853785,3.884350598,,-1.14025363,-2.549164027,3.011670714,4.10713721,,-1.09216815,-2.190622323,2.439953797,3.456158556,,,,,,,,,,,,,,,,,,,,,,,,,,,,,,,
1.819807,1.914061,1.781292,-2.053439,0.4420517,-0.8956886,0.04788005,-0.006306441,307.6949,174.9684,188.5917,,127.6949,-5.0316,8.5917,,-0.541655777,-3.909353785,3.918450598,,-1.144843276,-3.057585739,3.42440257,4.731387708,,-0.861088675,-2.09704197,2.398002275,3.299920248,,,,,,,,,,,,,,,,,,,,,,,,,,,,,,,
1.841735,1.914708,1.781433,-2.052919,0.4423494,-0.8955215,0.04822071,-0.006557801,307.6615,174.8913,188.676,,127.6615,-5.1087,8.676,,-0.508255777,-3.986453785,4.002750598,,-0.77032768,-2.894787373,3.22510304,4.401646089,,-0.582043996,-1.710047644,2.060172273,2.739954006,,,,,,,,,,,,,,,,,,,,,,,,,,,,,,,
1.853171,1.914716,1.781332,-2.05296,0.4423638,-0.8955066,0.0483531,-0.006645829,307.6613,174.8653,188.7058,,127.6613,-5.1347,8.7058,,-0.508055777,-4.012453785,4.032550598,,-0.446446956,-1.894056149,2.442319509,3.122769311,,-0.224733942,-1.056137038,1.459756181,1.815714432,,,,,,,,,,,,,,,,,,,,,,,,,,,,,,,
1.874761,1.915065,1.781262,-2.052626,0.4425274,-0.8954121,0.04859901,-0.006697201,307.6424,174.8326,188.755,,127.6424,-5.1674,8.755,,-0.489155777,-4.045153785,4.081750598,,-0.209577781,0.243292208,0.170450412,0.363548192,,0.162140765,-0.488375493,0.978879858,1.105896028,,,,,,,,,,,,,,,,,,,,,,,,,,,,,,,
1.896898,1.915595,1.781324,-2.052178,0.4424277,-0.8954712,0.04844069,-0.00652477,307.6525,174.8769,188.7121,,127.6525,-5.1231,8.7121,,-0.499255777,-4.000853785,4.038850598,,0.309374295,-0.215897356,0.642481158,0.745054468,,0.500853219,-0.329728083,0.857497411,1.0463634,,,,,,,,,,,,,,,,,,,,,,,,,,,,,,,
1.919052,1.916474,1.781513,-2.05141,0.4424269,-0.8954514,0.04879332,-0.006672681,307.6561,174.823,188.7835,,127.6561,-5.177,8.7835,,-0.502855777,-4.054753785,4.110250598,,0.425249798,-3.137907683,3.965133831,5.074405218,,0.820629656,-0.383693749,0.895678536,1.273928556,,,,,,,,,,,,,,,,,,,,,,,,,,,,,,,
1.941145,1.917305,1.78165,-2.050621,0.4423503,-0.89546,0.0492883,-0.006946219,307.6713,174.7381,188.8875,,127.6713,-5.2619,8.8875,,-0.518055777,-4.139653785,4.214250598,,1.051960986,-2.04054026,2.96051008,3.746337732,,1.082855367,-0.218915793,0.701174552,1.308489825,,,,,,,,,,,,,,,,,,,,,,,,,,,,,,,
1.963392,1.917957,1.781734,-2.050047,0.4421094,-0.8955677,0.04949932,-0.006908576,307.7028,174.7328,188.9145,,127.7028,-5.2672,8.9145,,-0.549555777,-4.144953785,4.241250598,,1.825892338,2.493124056,-1.978533719,3.669352268,,1.290991978,0.167615686,0.256461723,1.326848869,,,,,,,,,,,,,,,,,,,,,,,,,,,,,,,
1.98571,1.918306,1.781836,-2.049741,0.4416636,-0.8958139,0.0490791,-0.006481233,307.7527,174.8494,188.7991,,127.7527,-5.1506,8.7991,,-0.599455777,-4.028353785,4.125850598,,2.454077987,6.299829145,-5.789471035,8.901029204,,1.413816098,0.510981019,-0.17333091,1.513281588,,,,,,,,,,,,,,,,,,,,,,,,,,,,,,,
1.997086,1.918521,1.781836,-2.049562,0.4413866,-0.8959653,0.04885238,-0.006129097,307.7831,174.9333,188.7262,,127.7831,-5.0667,8.7262,,-0.629855777,-3.944453785,4.052950598,,2.789725516,5.333191441,-4.503627165,7.517190768,,1.449445034,0.656320546,-0.414047555,1.644105515,,,,,,,,,,,,,,,,,,,,,,,,,,,,,,,
2.019479,1.918828,1.781873,-2.049275,0.4408452,-0.8962409,0.04872242,-0.00582622,307.8482,175.007,188.668,,127.8482,-4.993,8.668,,-0.694955777,-3.870753785,3.994750598,,2.773240613,-0.285221761,0.660738468,2.86509865,,1.451502225,0.500416206,-0.326714168,1.56971884,,,,,,,,,,,,,,,,,,,,,,,,,,,,,,,
2.041568,1.918946,1.781794,-2.04913,0.4404313,-0.8964207,0.04910869,-0.006205208,307.9065,174.9217,188.7546,,127.9065,-5.0783,8.7546,,-0.753255777,-3.956053785,4.081350598,,2.750113323,-3.282295241,3.412643109,5.475647754,,1.365261481,0.249811377,-0.154503326,1.396501312,,,,,,,,,,,,,,,,,,,,,,,,,,,,,,,
2.052963,1.919186,1.781797,-2.048811,0.4401925,-0.8965282,0.04927,-0.006344134,307.9391,174.8909,188.7877,,127.9391,-5.1091,8.7877,,-0.785855777,-3.986853785,4.114450598,,2.268680602,-0.407050603,0.483118919,2.354995914,,1.21120755,0.067363562,-0.129855766,1.220009877,,,,,,,,,,,,,,,,,,,,,,,,,,,,,,,
2.075093,1.919201,1.781749,-2.048592,0.4398827,-0.8966895,0.0491184,-0.006210009,307.9762,174.9327,188.7448,,127.9762,-5.0673,8.7448,,-0.822955777,-3.945053785,4.071550598,,1.560932674,1.967323499,-2.356864209,3.444079189,,0.969259346,0.071885307,-0.303012112,1.018060665,,,,,,,,,,,,,,,,,,,,,,,,,,,,,,,
2.097578,1.919886,1.78193,-2.04768,0.4396063,-0.8968416,0.04882706,-0.006114492,308.0087,174.9787,188.6824,,128.0087,-5.0213,8.6824,,-0.855455777,-3.899053785,4.009150598,,0.826385883,1.568961944,-2.362201193,2.95373487,,0.664180982,0.225514651,-0.516792775,0.87124509,,,,,,,,,,,,,,,,,,,,,,,,,,,,,,,
2.119279,1.920444,1.782108,-2.046813,0.439559,-0.8968778,0.04858966,-0.006094965,308.0132,175.0024,188.6401,,128.0132,-4.9976,8.6401,,-0.859955777,-3.875353785,3.966850598,,0.016729214,-0.004642295,-0.686996872,0.687216211,,0.392831398,-0.043293107,-0.266569695,0.47670767,,,,,,,,,,,,,,,,,,,,,,,,,,,,,,,
2.141705,1.921032,1.782208,-2.045892,0.4396002,-0.8968564,0.04859396,-0.006235153,308.0093,174.9777,188.653,,128.0093,-5.0223,8.653,,-0.856055777,-3.900053785,3.979750598,,-0.182834299,-1.783464211,1.305784449,2.21793733,,0.192614269,-0.877338668,0.539032511,1.047558801,,,,,,,,,,,,,,,,,,,,,,,,,,,,,,,
2.163607,1.921678,1.78242,-2.04491,0.4396588,-0.8968184,0.04873328,-0.006483531,308.0051,174.9237,188.6976,,128.0051,-5.0763,8.6976,,-0.851855777,-3.954053785,4.024350598,,-0.811755376,-3.473760129,2.881222101,4.585563981,,0.030635527,-1.415686589,1.109024406,1.798622303,,,,,,,,,,,,,,,,,,,,,,,,,,,,,,,
2.174852,1.921805,1.782476,-2.044589,0.4398082,-0.8967367,0.04885726,-0.006704983,307.989,174.8733,188.7395,,127.989,-5.1267,8.7395,,-0.835755777,-4.004453785,4.066250598,,-1.577451307,-5.509729282,4.285552108,7.156215917,,-0.128361698,-1.19372538,0.932911208,1.520453988,,,,,,,,,,,,,,,,,,,,,,,,,,,,,,,
2.197659,1.922087,1.782464,-2.04388,0.4401852,-0.8965316,0.04912386,-0.007417216,307.9497,174.7242,188.85,,127.9497,-5.2758,8.85,,-0.796455777,-4.153553785,4.176750598,,-2.093365665,-1.981757566,0.709477581,2.968653112,,-0.230178523,-0.823285946,0.536870675,1.009461254,,,,,,,,,,,,,,,,,,,,,,,,,,,,,,,
2.220309,1.922499,1.782553,-2.043015,0.4405902,-0.8963571,0.04870468,-0.007215584,307.8939,174.7825,188.7724,,127.8939,-5.2175,8.7724,,-0.740655777,-4.095253785,4.099150598,,-2.140126395,4.490305525,-4.757682333,6.883206076,,-0.236178602,-0.813024894,0.479225292,0.972854917,,,,,,,,,,,,,,,,,,,,,,,,,,,,,,,
2.242052,1.922883,1.782584,-2.042268,0.4408313,-0.8962716,0.04817928,-0.006605346,307.8544,174.9218,188.64,,127.8544,-5.0782,8.64,,-0.701155777,-3.955953785,3.966750598,,-1.073466608,2.805328283,-2.536570999,3.93146153,,-0.107224698,-1.122508707,0.831311342,1.400928792,,,,,,,,,,,,,,,,,,,,,,,,,,,,,,,
2.253861,1.923306,1.782717,-2.041677,0.4408664,-0.8962513,0.048234,-0.006630115,307.8505,174.9124,188.652,,127.8505,-5.0876,8.652,,-0.697255777,-3.965353785,3.978750598,,0.186902835,-5.509400848,5.969201509,8.125256736,,0.159319664,-1.4815431,1.222627367,1.927477728,,,,,,,,,,,,,,,,,,,,,,,,,,,,,,,
2.27545,1.923565,1.782718,-2.041149,0.440856,-0.8961952,0.04923975,-0.007460284,307.8657,174.6917,188.8878,,127.8657,-5.3083,8.8878,,-0.712455777,-4.186053785,4.214550598,,0.667516975,-7.283744736,8.070633115,10.89190687,,0.470663531,-1.504776714,1.223191549,1.995513639,,,,,,,,,,,,,,,,,,,,,,,,,,,,,,,
2.297638,1.923914,1.782821,-2.040581,0.4407968,-0.8961915,0.04978314,-0.007780008,307.8797,174.5953,189.0036,,127.8797,-5.4047,9.0036,,-0.726455777,-4.282453785,4.330350598,,0.683149391,-0.396799521,1.123171531,1.373192353,,0.812009332,-0.887066156,0.616634809,1.351474753,,,,,,,,,,,,,,,,,,,,,,,,,,,,,,,
2.319941,1.924092,1.782832,-2.040188,0.44063,-0.8962879,0.04958054,-0.007428257,307.8961,174.6745,188.9373,,127.8961,-5.3255,8.9373,,-0.742855777,-4.203253785,4.264050598,,0.94506188,4.408662044,-4.665408013,6.488102566,,1.14763641,0.191895249,-0.355617766,1.216699269,,,,,,,,,,,,,,,,,,,,,,,,,,,,,,,
2.342196,1.924208,1.782842,-2.039697,0.4403705,-0.8964534,0.04894061,-0.007075868,307.9218,174.7917,188.7958,,127.9218,-5.2083,8.7958,,-0.768555777,-4.086053785,4.122550598,,1.482931647,2.100717173,-3.106254187,4.03248236,,1.440693776,1.198286482,-1.183882062,2.216543658,,,,,,,,,,,,,,,,,,,,,,,,,,,,,,,
2.364172,1.924097,1.782761,-2.039567,0.4400703,-0.8966013,0.04890192,-0.007277275,307.9616,174.7683,188.799,,127.9616,-5.2317,8.799,,-0.808355777,-4.109453785,4.125750598,,2.50278663,-2.454327627,2.214917461,4.146507491,,1.690773725,1.673907159,-1.499920441,2.812550853,,,,,,,,,,,,,,,,,,,,,,,,,,,,,,,
2.37757,1.924197,1.782764,-2.039397,0.4397622,-0.8967354,0.04918147,-0.007493169,308.0044,174.7168,188.8564,,128.0044,-5.2832,8.8564,,-0.851155777,-4.160953785,4.183150598,,3.481805926,-4.672089402,4.400111455,7.301532216,,1.771890763,2.034026684,-1.609062918,3.141010172,,,,,,,,,,,,,,,,,,,,,,,,,,,,,,,
2.397787,1.923698,1.782506,-2.039681,0.4392217,-0.8969766,0.04951964,-0.008073269,308.0806,174.6056,188.9477,,128.0806,-5.3944,8.9477,,-0.927355777,-4.272153785,4.274450598,,3.864635976,-2.085501191,1.313118803,4.583558382,,1.686424622,2.875945891,-2.200112298,3.994444505,,,,,,,,,,,,,,,,,,,,,,,,,,,,,,,
2.419377,1.923408,1.782393,-2.03965,0.4385394,-0.8973188,0.04936699,-0.008072346,308.1661,174.6343,188.9069,,128.1661,-5.3657,8.9069,,-1.012855777,-4.243453785,4.233650598,,3.62574003,4.556477121,-5.004015513,7.677737022,,1.549664963,3.792093509,-2.957415724,5.052498633,,,,,,,,,,,,,,,,,,,,,,,,,,,,,,,
2.441192,1.922876,1.782199,-2.039803,0.4378943,-0.8976766,0.04867652,-0.007475249,308.2379,174.8041,188.7298,,128.2379,-5.1959,8.7298,,-1.084655777,-4.073653785,4.056550598,,2.785700705,8.516768975,-8.353731369,12.25072692,,1.353059142,4.199633691,-3.23213429,5.469404378,,,,,,,,,,,,,,,,,,,,,,,,,,,,,,,
2.464349,1.922357,1.782037,-2.039876,0.4373795,-0.8979725,0.04796975,-0.006596317,308.2907,175.0183,188.5309,,128.2907,-4.9817,8.5309,,-1.137455777,-3.859453785,3.857650598,,1.716380099,11.10132847,-10.05795826,15.07806284,,1.123716905,4.082275681,-3.02988467,5.206526244,,,,,,,,,,,,,,,,,,,,,,,,,,,,,,,
2.486298,1.921192,1.781695,-2.040571,0.4370505,-0.8981877,0.0470864,-0.005353031,308.316,175.3026,188.2779,,128.316,-4.6974,8.2779,,-1.162755777,-3.575153785,3.604650598,,1.11091294,10.67337433,-8.866181264,13.9199216,,0.854564164,3.960738505,-2.822786465,4.938203402,,,,,,,,,,,,,,,,,,,,,,,,,,,,,,,
2.508278,1.920398,1.781485,-2.040858,0.4367856,-0.8983398,0.04673476,-0.004443427,308.3395,175.4871,188.1415,,128.3395,-4.5129,8.1415,,-1.186255777,-3.390653785,3.468250598,,-0.018945119,7.486882102,-3.955423192,8.467534184,,0.49039011,4.162224594,-3.003246017,5.155975433,,,,,,,,,,,,,,,,,,,,,,,,,,,,,,,
2.519479,1.920237,1.781504,-2.040755,0.4368522,-0.8983034,0.0468591,-0.003929072,308.3271,175.5608,188.1224,,128.3271,-4.4392,8.1224,,-1.173855777,-3.316953785,3.449150598,,-0.924156998,5.435548849,-1.714440439,5.773955617,,0.107834461,4.652554888,-3.461972179,5.800271255,,,,,,,,,,,,,,,,,,,,,,,,,,,,,,,
2.541873,1.920009,1.781574,-2.040473,0.4369414,-0.8982596,0.04691313,-0.003311685,308.3105,175.6569,188.0838,,128.3105,-4.3431,8.0838,,-1.157255777,-3.220853785,3.410550598,,-1.110358592,4.626174294,-1.774311415,5.077653572,,-0.193243295,5.161452905,-3.863108747,6.44992622,,,,,,,,,,,,,,,,,,,,,,,,,,,,,,,
2.553161,1.920136,1.781705,-2.040083,0.4370482,-0.8982068,0.04695568,-0.002939843,308.2938,175.7129,188.0632,,128.2938,-4.2871,8.0632,,-1.140555777,-3.164853785,3.389950598,,-1.872726285,4.90122284,-2.448169833,5.789872589,,-0.391408704,5.262982955,-3.81631263,6.512789913,,,,,,,,,,,,,,,,,,,,,,,,,,,,,,,
2.575138,1.919624,1.78159,-2.040201,0.4373927,-0.8980488,0.04680502,-0.002328953,308.244,175.8193,187.9957,,128.244,-4.1807,7.9957,,-1.090755777,-3.058453785,3.322450598,,-2.036387196,2.883007923,-2.036162946,4.074870187,,-0.487855264,4.801511442,-3.18783948,5.784015511,,,,,,,,,,,,,,,,,,,,,,,,,,,,,,,
2.586927,1.91937,1.781595,-2.040239,0.4375542,-0.8979734,0.04674273,-0.002273918,308.2227,175.8302,187.9839,,128.2227,-4.1698,7.9839,,-1.069455777,-3.047553785,3.310650598,,-2.016053983,0.520733883,-0.413977523,2.12297311,,-0.506462814,3.82378912,-2.103791465,4.393609717,,,,,,,,,,,,,,,,,,,,,,,,,,,,,,,
2.608317,1.919004,1.781637,-2.040058,0.4379253,-0.897792,0.04675516,-0.002207415,308.1751,175.8327,187.9876,,128.1751,-4.1673,7.9876,,-1.021855777,-3.045053785,3.314350598,,-2.231476078,0.164991533,-0.131056715,2.24140214,,-0.441112259,2.861499102,-1.150845484,3.115638372,,,,,,,,,,,,,,,,,,,,,,,,,,,,,,,
2.619579,1.918828,1.781635,-2.040017,0.4381216,-0.8976985,0.04671164,-0.002190473,308.1499,175.8351,187.9827,,128.1499,-4.1649,7.9827,,-0.996655777,-3.042653785,3.309450598,,-1.491417513,1.702204422,-1.56332865,2.750604035,,-0.257067839,2.39566791,-0.8946967,2.5701733,,,,,,,,,,,,,,,,,,,,,,,,,,,,,,,
2.642391,1.918356,1.781604,-2.040038,0.4382234,-0.8976607,0.04649966,-0.001843221,308.1329,175.9079,187.9213,,128.1329,-4.0921,7.9213,,-0.979655777,-2.969853785,3.248050598,,-0.049374852,4.530173022,-3.901656582,5.978948868,,-0.000897479,2.3352472,-1.117796359,2.588986093,,,,,,,,,,,,,,,,,,,,,,,,,,,,,,,
2.664047,1.918081,1.781563,-2.040006,0.4380613,-0.89776,0.04612611,-0.001280284,308.1469,176.035,187.8106,,128.1469,-3.965,7.8106,,-0.993655777,-2.842753785,3.137350598,,1.049589714,5.876367778,-4.395666001,7.413178564,,0.310593207,2.324489866,-1.373066691,2.717541797,,,,,,,,,,,,,,,,,,,,,,,,,,,,,,,
2.686006,1.917881,1.781608,-2.039898,0.4377589,-0.8979145,0.04600318,-0.00059802,308.1788,176.1642,187.7298,,128.1788,-3.8358,7.7298,,-1.025555777,-2.713553785,3.056550598,,1.531895425,2.517639299,-0.183580417,2.952780555,,0.729294077,2.092617914,-1.383264554,2.612343854,,,,,,,,,,,,,,,,,,,,,,,,,,,,,,,
2.708165,1.917829,1.781725,-2.039684,0.4374882,-0.8980196,0.04652528,-0.000488281,308.2145,176.1454,187.8032,,128.2145,-3.8546,7.8032,,-1.061255777,-2.732353785,3.129950598,,1.474481955,-1.609061713,4.034665928,4.587123912,,1.172715915,1.900259426,-1.295308116,2.58148632,,,,,,,,,,,,,,,,,,,,,,,,,,,,,,,
2.719601,1.917655,1.781682,-2.039766,0.4373796,-0.8980553,0.0468564,-0.000503309,308.2298,176.1183,187.8576,,128.2298,-3.8817,7.8576,,-1.076555777,-2.759453785,3.184350598,,1.960470155,-1.836395901,3.522116497,4.429570832,,1.648339704,1.950504666,-1.396006163,2.910382353,,,,,,,,,,,,,,,,,,,,,,,,,,,,,,,
2.741242,1.917518,1.781738,-2.03975,0.436954,-0.8982462,0.04716655,-0.000572561,308.2857,176.0901,187.9071,,128.2857,-3.9099,7.9071,,-1.132455777,-2.787653785,3.233850598,,2.373632337,1.431076601,-0.625489002,2.841363616,,2.111009397,1.875570243,-1.447961199,3.173439151,,,,,,,,,,,,,,,,,,,,,,,,,,,,,,,
2.752886,1.916821,1.781477,-2.04037,0.4367374,-0.8983582,0.04704176,-0.000366211,308.3109,176.1386,187.8659,,128.3109,-3.8614,7.8659,,-1.157655777,-2.739153785,3.192650598,,2.406057687,4.650079616,-4.614736011,6.979121899,,2.396752018,1.770354414,-1.496980477,3.334595258,,,,,,,,,,,,,,,,,,,,,,,,,,,,,,,
2.774639,1.916086,1.781221,-2.040923,0.4362404,-0.8986265,0.04652657,0,308.3685,176.2503,187.7421,,128.3685,-3.7497,7.7421,,-1.215255777,-2.627453785,3.068850598,,2.939020321,4.486328957,-5.092825727,7.396070703,,2.586570864,2.094283104,-2.025136959,3.895837556,,,,,,,,,,,,,,,,,,,,,,,,,,,,,,,
2.797022,1.915425,1.781064,-2.041458,0.4356406,-0.8989394,0.04610058,0.000244141,308.4408,176.3362,187.6415,,128.4408,-3.6638,7.6415,,-1.287555777,-2.541553785,2.968250598,,3.570385028,1.886887464,-2.580742055,4.792517408,,2.757532534,2.405576267,-2.624589257,4.503249007,,,,,,,,,,,,,,,,,,,,,,,,,,,,,,,
2.818911,1.91506,1.780924,-2.041747,0.4349707,-0.8992677,0.04602342,0.00012207,308.5264,176.3348,187.6269,,128.5264,-3.6652,7.6269,,-1.373155777,-2.542953785,2.953650598,,3.728096695,0.382347582,-0.892729246,3.852513484,,2.866080208,2.424928707,-2.941810177,4.769585108,,,,,,,,,,,,,,,,,,,,,,,,,,,,,,,
2.840995,1.915155,1.781131,-2.041479,0.4343496,-0.8995722,0.04593851,0.00012207,308.6047,176.3531,187.6022,,128.6047,-3.6469,7.6022,,-1.451455777,-2.524653785,2.928950598,,4.167055278,1.173921997,-1.723052139,4.6595441,,2.983183164,2.436256887,-3.254263408,5.042316902,,,,,,,,,,,,,,,,,,,,,,,,,,,,,,,
2.852251,1.914755,1.781041,-2.041853,0.4339211,-0.8997848,0.0458242,0.00012207,308.6586,176.3702,187.576,,128.6586,-3.6298,7.576,,-1.505355777,-2.507553785,2.902750598,,3.783229926,-0.80915596,-0.806472185,3.951956405,,3.156835465,2.538872553,-3.656485828,5.457231221,,,,,,,,,,,,,,,,,,,,,,,,,,,,,,,
2.874498,1.914371,1.781041,-2.042175,0.4334642,-0.9000103,0.04571676,-0.000404861,308.7204,176.3004,187.5919,,128.7204,-3.6996,7.5919,,-1.567155777,-2.577353785,2.918650598,,2.223236567,0.334398635,-2.200579256,3.14597399,,3.336129177,2.627245444,-3.98230377,5.821590833,,,,,,,,,,,,,,,,,,,,,,,,,,,,,,,
2.89901,1.913741,1.781071,-2.042656,0.4331064,-0.9002135,0.04510428,-0.000172634,308.7613,176.3937,187.4665,,128.7613,-3.6063,7.4665,,-1.608055777,-2.484053785,2.793250598,,2.41827015,8.741246,-10.76769085,14.07837272,,3.492901618,2.56683364,-4.16520469,6.011482908,,,,,,,,,,,,,,,,,,,,,,,,,,,,,,,
2.913846,1.912899,1.780986,-2.043441,0.4326594,-0.900484,0.04397972,0.000472776,308.8083,176.5966,187.2229,,128.8083,-3.4034,7.2229,,-1.655055777,-2.281153785,2.549650598,,3.272091424,9.923178896,-12.18854587,16.05418052,,3.563717113,2.457959767,-4.338187371,6.128745022,,,,,,,,,,,,,,,,,,,,,,,,,,,,,,,
2.936001,1.912231,1.781083,-2.044107,0.4320213,-0.9008304,0.04314404,0.000836872,308.8831,176.7333,187.0466,,128.8831,-3.2667,7.0466,,-1.729855777,-2.144453785,2.373350598,,2.943015179,2.769221012,-4.30745238,5.906273729,,3.474913481,2.453077005,-4.584329877,6.253694181,,,,,,,,,,,,,,,,,,,,,,,,,,,,,,,
2.947715,1.911902,1.781092,-2.044567,0.4317932,-0.9009435,0.04306955,0.000732422,308.9125,176.7259,187.0389,,128.9125,-3.2741,7.0389,,-1.759255777,-2.151853785,2.365650598,,2.996820387,-1.461795368,-0.027226082,3.33444439,,3.286036444,2.467892526,-4.820783978,6.334704981,,,,,,,,,,,,,,,,,,,,,,,,,,,,,,,
2.969444,1.91095,1.781079,-2.045579,0.4312184,-0.9012213,0.04301935,0.000345267,308.9882,176.6761,187.052,,128.9882,-3.3239,7.052,,-1.834955777,-2.201653785,2.378750598,,4.21795007,-0.502392243,-1.706774955,4.577835897,,3.016847096,2.330210413,-4.840224548,6.161089242,,,,,,,,,,,,,,,,,,,,,,,,,,,,,,,
2.991354,1.910151,1.781033,-2.046358,0.4303558,-0.9016591,0.04248293,0.000172634,309.0967,176.7043,186.964,,129.0967,-3.2957,6.964,,-1.943455777,-2.173453785,2.290750598,,4.704450595,2.579924186,-4.861122247,7.240053432,,2.730179551,2.309003394,-4.871318944,6.042774637,,,,,,,,,,,,,,,,,,,,,,,,,,,,,,,
3.002483,1.909776,1.781047,-2.046737,0.4299504,-0.9018673,0.04216713,0.000244141,309.1463,176.7474,186.9005,,129.1463,-3.2526,6.9005,,-1.993055777,-2.130353785,2.227250598,,4.444099411,3.864726159,-6.992447968,9.142234762,,2.515459575,2.214849829,-4.787757922,5.844289739,,,,,,,,,,,,,,,,,,,,,,,,,,,,,,,
3.024756,1.908459,1.780904,-2.047881,0.4291432,-0.9023017,0.04108097,0.000172634,309.245,176.8333,186.7161,,129.245,-3.1667,6.7161,,-2.091755777,-2.044453785,2.042850598,,3.859621759,3.07096861,-7.341600583,8.844581813,,2.295272043,1.490841081,-4.031103095,4.872440153,,,,,,,,,,,,,,,,,,,,,,,,,,,,,,,
3.046898,1.907834,1.781011,-2.048317,0.4285532,-0.9026225,0.04018543,0,309.3178,176.8839,186.5743,,129.3178,-3.1161,6.5743,,-2.164555777,-1.993853785,1.901050598,,2.415937808,1.823411563,-5.780594631,6.525094597,,2.09652652,0.559638704,-3.087912314,3.774098752,,,,,,,,,,,,,,,,,,,,,,,,,,,,,,,
3.069372,1.907161,1.781055,-2.048666,0.4282693,-0.9027918,0.03940149,-0.000211432,309.3525,176.9145,186.4584,,129.3525,-3.0855,6.4584,,-2.199255777,-1.963253785,1.785150598,,1.272695217,0.574949351,-3.966632567,4.205293544,,2.075915071,-0.030257019,-2.579826215,3.311471299,,,,,,,,,,,,,,,,,,,,,,,,,,,,,,,
3.081655,1.906784,1.781053,-2.0489,0.4281735,-0.902849,0.03912825,-0.000366211,309.3648,176.9119,186.4243,,129.3648,-3.0881,6.4243,,-2.211555777,-1.965853785,1.751050598,,0.667593753,-0.61594547,-1.975779552,2.174574689,,2.134581985,-0.266964725,-2.390545443,3.215962986,,,,,,,,,,,,,,,,,,,,,,,,,,,,,,,
3.102925,1.905944,1.78106,-2.049541,0.4281253,-0.9028836,0.03885308,-0.000634296,309.3719,176.8902,186.3993,,129.3719,-3.1098,6.3993,,-2.218655777,-1.987553785,1.726050598,,0.056551838,-1.084847202,-1.210699332,1.626617482,,2.160551859,-0.180322848,-2.434470602,3.259930641,,,,,,,,,,,,,,,,,,,,,,,,,,,,,,,
3.124674,1.904986,1.780971,-2.05022,0.4281709,-0.902875,0.03854446,-0.00092966,309.3671,176.8652,186.3722,,129.3671,-3.1348,6.3722,,-2.213855777,-2.012553785,1.698950598,,-0.568123114,-0.889597717,-1.114285964,1.534855426,,2.197475847,-0.099619152,-2.443931898,3.288103891,,,,,,,,,,,,,,,,,,,,,,,,,,,,,,,
3.147065,1.904104,1.780914,-2.050654,0.4283367,-0.9028061,0.03830927,-0.001112113,309.3466,176.8511,186.3502,,129.3466,-3.1489,6.3502,,-2.193355777,-2.026653785,1.676950598,,-0.44416777,-0.670867719,-0.93117811,1.230626336,,2.260978216,-0.135059146,-2.221601355,3.17266072,,,,,,,,,,,,,,,,,,,,,,,,,,,,,,,
3.169115,1.903486,1.780789,-2.051042,0.4283374,-0.9028144,0.03809787,-0.001309058,309.3472,176.8354,186.3308,,129.3472,-3.1646,6.3308,,-2.193955777,-2.042353785,1.657550598,,0.68839963,-2.182452005,0.072934286,2.289609184,,2.399781104,-0.11818555,-1.881068249,3.051448005,,,,,,,,,,,,,,,,,,,,,,,,,,,,,,,
3.191344,1.902653,1.780644,-2.051672,0.4281283,-0.9029173,0.03798702,-0.001879249,309.3772,176.7542,186.3536,,129.3772,-3.2458,6.3536,,-2.223955777,-2.123553785,1.680350598,,2.675066334,-4.899423386,2.297666915,6.036522397,,2.612106522,0.111019997,-1.712022638,3.125131587,,,,,,,,,,,,,,,,,,,,,,,,,,,,,,,
3.213391,1.90154,1.78034,-2.052603,0.4274806,-0.9032156,0.03813989,-0.002702142,309.4654,176.6187,186.4323,,129.4654,-3.3813,6.4323,,-2.312155777,-2.259053785,1.759050598,,3.759490271,-4.538995555,2.433423954,6.376346908,,2.903076529,0.76600077,-1.980384067,3.596739018,,,,,,,,,,,,,,,,,,,,,,,,,,,,,,,
3.224646,1.901169,1.780323,-2.052851,0.4271807,-0.9033564,0.03814927,-0.002929688,309.505,176.5857,186.4469,,129.505,-3.4143,6.4469,,-2.351755777,-2.292053785,1.773650598,,4.55555844,0.623952156,-2.277802033,5.131355678,,3.220773409,1.850272244,-2.706371625,4.595795481,,,,,,,,,,,,,,,,,,,,,,,,,,,,,,,
3.246943,1.90038,1.780106,-2.05332,0.4261645,-0.9038631,0.03752248,-0.002748616,309.6297,176.6789,186.3164,,129.6297,-3.3211,6.3164,,-2.476455777,-2.198853785,1.643150598,,5.184462439,3.629072237,-4.984119092,8.055449038,,3.495695738,3.043491991,-3.524037051,5.822505417,,,,,,,,,,,,,,,,,,,,,,,,,,,,,,,
3.258898,1.899924,1.779996,-2.053607,0.4257016,-0.9040907,0.03729583,-0.002671639,309.6868,176.7157,186.2672,,129.6868,-3.2843,6.2672,,-2.533555777,-2.162053785,1.593950598,,5.269630204,3.404006234,-4.102150907,7.495592237,,3.718506531,4.038436613,-4.14363994,6.877936686,,,,,,,,,,,,,,,,,,,,,,,,,,,,,,,
3.281178,1.898883,1.779737,-2.054208,0.424661,-0.9045954,0.03693913,-0.002423027,309.8152,176.7988,186.1761,,129.8152,-3.2012,6.1761,,-2.661955777,-2.078953785,1.502850598,,5.664059302,3.290325359,-2.914670205,7.169596303,,3.813915668,4.940697176,-4.674891871,7.79814435,,,,,,,,,,,,,,,,,,,,,,,,,,,,,,,
3.303873,1.897887,1.779509,-2.054761,0.4236432,-0.9050739,0.03691956,-0.002124865,309.9415,176.8635,186.1366,,129.9415,-3.1365,6.1366,,-2.788255777,-2.014253785,1.463350598,,5.176168244,4.803083677,-3.583001692,7.918347784,,3.72730917,5.901268894,-5.215189183,8.712979193,,,,,,,,,,,,,,,,,,,,,,,,,,,,,,,
3.315153,1.897347,1.779414,-2.055003,0.4231923,-0.905293,0.03673931,-0.001777371,309.9955,176.9397,186.0754,,129.9955,-3.0603,6.0754,,-2.842255777,-1.938053785,1.402150598,,5.055305305,9.089699402,-7.455331135,12.79690233,,3.435308755,7.066980293,-5.956255454,9.860047451,,,,,,,,,,,,,,,,,,,,,,,,,,,,,,,
3.338052,1.896045,1.779141,-2.055675,0.4221444,-0.9058119,0.03603618,-0.000572561,310.1174,177.2013,185.8582,,130.1174,-2.7987,5.8582,,-2.964155777,-1.676453785,1.184950598,,4.797653196,13.47958369,-11.41361781,18.30265893,,2.936962415,8.293337503,-6.774278051,11.10387492,,,,,,,,,,,,,,,,,,,,,,,,,,,,,,,
3.349452,1.89547,1.779066,-2.055855,0.4217044,-0.906038,0.03550379,0.000244141,310.1661,177.3784,185.7061,,130.1661,-2.6216,5.7061,,-3.012855777,-1.499353785,1.032850598,,3.63054211,14.42700952,-11.84034987,19.01350374,,2.281351844,9.025533715,-7.155359155,11.74154972,,,,,,,,,,,,,,,,,,,,,,,,,,,,,,,
3.372134,1.894464,1.778931,-2.056,0.4210783,-0.9063554,0.03478447,0.001739234,310.2339,177.6805,185.4716,,130.2339,-2.3195,5.4716,,-3.080655777,-1.197253785,0.798350598,,2.328417205,12.04468237,-9.169123523,15.31563666,,1.540771137,9.244517895,-7.141142891,11.78265711,,,,,,,,,,,,,,,,,,,,,,,,,,,,,,,
3.383647,1.893794,1.77881,-2.056237,0.420891,-0.9064512,0.03451763,0.002373318,310.2531,177.8045,185.3795,,130.2531,-2.1955,5.3795,,-3.099855777,-1.073253785,0.706250598,,0.796151008,11.0585196,-7.837453207,13.57756918,,0.75641294,9.090093929,-6.852270943,11.40857508,,,,,,,,,,,,,,,,,,,,,,,,,,,,,,,
3.4062,1.892989,1.778875,-2.056015,0.4208321,-0.90649,0.03408758,0.00376246,310.2514,178.0604,185.2064,,130.2514,-1.9396,5.2064,,-3.098155777,-0.817353785,0.533150598,,-0.437484848,10.30498033,-6.950930768,12.43782341,,-0.062073997,8.585475751,-6.313853349,10.65734447,,,,,,,,,,,,,,,,,,,,,,,,,,,,,,,
3.417956,1.892765,1.778942,-2.055669,0.4208767,-0.9064735,0.03390545,0.004358782,310.242,178.1693,185.1332,,130.242,-1.8307,5.1332,,-3.088755777,-0.708453785,0.459950598,,-1.12093906,10.25482481,-7.336194612,12.65850258,,-0.880037588,7.628626642,-5.463451526,9.424421105,,,,,,,,,,,,,,,,,,,,,,,,,,,,,,,
3.440559,1.891932,1.778928,-2.055437,0.4210682,-0.906399,0.03332005,0.00568119,310.2094,178.4235,184.9423,,130.2094,-1.5765,4.9423,,-3.056155777,-0.454253785,0.269050598,,-2.719012151,11.40364817,-8.200869811,14.30700822,,-1.737341157,6.190977256,-4.261177166,7.713895548,,,,,,,,,,,,,,,,,,,,,,,,,,,,,,,
3.451821,1.89153,1.778904,-2.055328,0.4213911,-0.906253,0.03307858,0.006399094,310.1644,178.5537,184.8527,,130.1644,-1.4463,4.8527,,-3.011155777,-0.324053785,0.179450598,,-3.967378986,10.14250291,-7.23185638,13.0732631,,-2.6013425,4.585972211,-2.948866834,6.041021398,,,,,,,,,,,,,,,,,,,,,,,,,,,,,,,
3.474517,1.890784,1.778767,-2.054947,0.4220494,-0.9059552,0.032617,0.00745429,310.075,178.7517,184.705,,130.075,-1.2483,4.705,,-2.921755777,-0.126053785,0.031750598,,-4.44308674,6.475866579,-4.799307658,9.203869932,,-3.346153623,3.227592684,-1.918181356,5.02926618,,,,,,,,,,,,,,,,,,,,,,,,,,,,,,,
3.485776,1.890509,1.778739,-2.054671,0.4224785,-0.905757,0.03250488,0.007723299,310.0193,178.7993,184.6702,,130.0193,-1.2007,4.6702,,-2.866055777,-0.078453785,-0.003049402,,-4.927026366,1.39649467,-0.346815588,5.132842022,,-3.92474239,2.157328254,-1.239070874,4.646823071,,,,,,,,,,,,,,,,,,,,,,,,,,,,,,,
3.50801,1.889742,1.778688,-2.054485,0.4233457,-0.9053422,0.03278219,0.007706882,309.9102,178.7674,184.7235,,129.9102,-1.2326,4.7235,,-2.756955777,-0.110353785,0.050250598,,-4.976270872,-3.269710954,4.084758519,7.220770989,,-4.353570727,0.792204477,-0.327869538,4.437191053,,,,,,,,,,,,,,,,,,,,,,,,,,,,,,,
3.530029,1.889293,1.778708,-2.054178,0.4242471,-0.9049027,0.0333433,0.00733032,309.7991,178.655,184.8506,,129.7991,-1.345,4.8506,,-2.645855777,-0.222753785,0.177350598,,-5.457358446,-7.635954741,7.472222009,11.99686075,,-4.639072312,-0.865948511,0.887660715,4.801957964,,,,,,,,,,,,,,,,,,,,,,,,,,,,,,,
3.551736,1.889012,1.778773,-2.053669,0.4253055,-0.9043861,0.03406396,0.006375764,309.6717,178.4343,185.0497,,129.6717,-1.5657,5.0497,,-2.518455777,-0.443453785,0.376450598,,-6.089641091,-9.599742613,8.174235537,14.00203248,,-4.844610728,-2.626618042,2.219857945,5.94114002,,,,,,,,,,,,,,,,,,,,,,,,,,,,,,,
3.563051,1.889117,1.7789,-2.053133,0.4258948,-0.9041028,0.03430589,0.005899925,309.6003,178.3321,185.1309,,129.6003,-1.6679,5.1309,,-2.447055777,-0.545653785,0.457650598,,-6.434364267,-7.385481902,5.646416514,11.3061225,,-4.924143809,-4.346024945,3.449307841,7.41841288,,,,,,,,,,,,,,,,,,,,,,,,,,,,,,,
3.574517,1.888928,1.778883,-2.052932,0.4265051,-0.9038131,0.03441192,0.005587301,309.5251,178.2663,185.1781,,129.5251,-1.7337,5.1781,,-2.371855777,-0.611453785,0.504850598,,-6.052002485,-3.231924338,1.558561344,7.035707674,,-4.895148613,-5.827207277,4.472354493,8.827274738,,,,,,,,,,,,,,,,,,,,,,,,,,,,,,,
3.59603,1.888726,1.778902,-2.052442,0.4274506,-0.9033771,0.03414981,0.005433158,309.4058,178.2507,185.1566,,129.4058,-1.7493,5.1566,,-2.252555777,-0.627053785,0.483350598,,-5.193236763,-1.868755214,-0.340687256,5.52973977,,-4.803376216,-6.804132924,5.093302501,9.762703431,,,,,,,,,,,,,,,,,,,,,,,,,,,,,,,
3.60735,1.888783,1.779035,-2.05198,0.4278922,-0.9031737,0.03403486,0.005200539,309.351,178.2166,185.1602,,129.351,-1.7834,5.1602,,-2.197755777,-0.661153785,0.486950598,,-4.778617377,-6.688089512,4.008164154,9.145004388,,-4.665788814,-7.126254765,5.107740335,9.931873114,,,,,,,,,,,,,,,,,,,,,,,,,,,,,,,
3.629147,1.888876,1.779104,-2.051247,0.4287626,-0.9027497,0.03448157,0.004090722,309.2482,177.9907,185.328,,129.2482,-2.0093,5.328,,-2.094955777,-0.887053785,0.654750598,,-4.149005456,-11.25100852,8.850962526,14.90432744,,-4.524875705,-7.134131145,4.828042473,9.730381362,,,,,,,,,,,,,,,,,,,,,,,,,,,,,,,
3.640203,1.888743,1.779131,-2.050997,0.4291114,-0.9025728,0.03483862,0.003465593,309.2086,177.8565,185.4386,,129.2086,-2.1435,5.4386,,-2.055355777,-1.021253785,0.765350598,,-3.792938461,-12.63387908,9.982369369,16.54233904,,-4.331215056,-6.850173913,4.353262273,9.199739068,,,,,,,,,,,,,,,,,,,,,,,,,,,,,,,
3.66258,1.888474,1.779061,-2.050708,0.429901,-0.9021771,0.03546221,0.002027984,309.119,177.5627,185.6615,,129.119,-2.4373,5.6615,,-1.965755777,-1.315053785,0.988250598,,-3.752942207,-10.94864158,7.781978837,13.94691802,,-4.121257016,-6.307145593,3.779452342,8.429063111,,,,,,,,,,,,,,,,,,,,,,,,,,,,,,,
3.67386,1.888351,1.779001,-2.050584,0.4302413,-0.9020115,0.03557423,0.001504984,309.0795,177.4638,185.7247,,129.0795,-2.5362,5.7247,,-1.926255777,-1.413953785,1.051450598,,-3.590441442,-9.112867402,6.067750098,11.52185807,,-3.927197257,-5.827461036,3.308509816,7.767137028,,,,,,,,,,,,,,,,,,,,,,,,,,,,,,,
3.685004,1.888463,1.779032,-2.050205,0.4305952,-0.9018369,0.03573618,0.000968903,309.0385,177.3584,185.7975,,129.0385,-2.6416,5.7975,,-1.885255777,-1.519353785,1.124250598,,-3.250045581,-6.224166822,3.273016448,7.746979126,,-3.817956326,-5.622832417,3.086451458,7.464530628,,,,,,,,,,,,,,,,,,,,,,,,,,,,,,,
3.707443,1.888514,1.779054,-2.049567,0.4311137,-0.9016004,0.03546285,0.000472776,308.9752,177.2913,185.7978,,128.9752,-2.7087,5.7978,,-1.821955777,-1.586453785,1.124550598,,-3.138390131,-2.791089269,-0.159123745,4.20297422,,-3.8258161,-5.594332111,3.083137186,7.445747478,,,,,,,,,,,,,,,,,,,,,,,,,,,,,,,
3.718902,1.888112,1.778867,-2.049613,0.4314345,-0.9014531,0.03530598,0.000244141,308.9356,177.2616,185.794,,128.9356,-2.7384,5.794,,-1.782355777,-1.616153785,1.120750598,,-3.144400462,-3.372103889,0.448686314,4.632457049,,-3.869196931,-5.323392495,2.837117146,7.166479348,,,,,,,,,,,,,,,,,,,,,,,,,,,,,,,
