Time,X,Y,Z,wquat,xquat,yquat,zquat,xrot,yrot,zrot,,,,,,130.4695428,-16.75916874,22.05932882,,v_roll,v_pitch,v_yaw,V,,vxavg,vyavg,vzavg,avg speed,,Phase,GFO,Movement,,,,,,,,,,,,,,,,,,,,,,,,,,,
0,1.5,0,-1.64,0,0,1,0,0,180,0,,-180,0,-180,,-49.53045721,16.75916874,157.9406712,,,,,30,,,,,,,,,,,,,,,,,,,,,,,,,,,,,,,,,,,,
0,1.927704,1.789164,-2.207767,0.3228918,-0.9375476,0.1091488,-0.06951162,323.8232,165.5938,198.0086,,143.8232,-14.4062,18.0086,,-13.35365721,2.352968736,-4.050728825,,#DIV/0!,#DIV/0!,#DIV/0!,#DIV/0!,,,,,,,,,,,,,,,,,,,,,,,,,,,,,,,,,,,,
0.02,1.927139,1.789204,-2.207311,0.3230232,-0.9375488,0.1089876,-0.06913696,323.7983,165.6461,197.9753,,143.7983,-14.3539,17.9753,,-13.32875721,2.405268736,-4.084028825,,-1.165963114,1.300532524,-0.574703395,1.838787324,,,,,,,,,,,,,,,,,,,,,,,,,,,,,,,,,,,,
0.0415286,1.926784,1.789246,-2.207206,0.3232191,-0.9374797,0.1090442,-0.0690699,323.7749,165.6458,197.9864,,143.7749,-14.3542,17.9864,,-13.30535721,2.404968736,-4.072928825,,0.570153158,-3.758997684,3.379348678,5.086760826,,,,,,,,,,,,,,,,,,,,,,,,,,,,,,,,,,,,
0.0561207,1.926267,1.78918,-2.206904,0.323116,-0.9374076,0.1095277,-0.06976177,323.8074,165.5363,198.0775,,143.8074,-14.4637,18.0775,,-13.33785721,2.295468736,-3.981828825,,2.426412333,-6.237382988,4.695349131,8.175495508,,,,,,,,,,,,,,,,,,,,,,,,,,,,,,,,,,,,
0.0689559,1.926021,1.789155,-2.206771,0.3229298,-0.9374139,0.109727,-0.07022513,323.8411,165.4725,198.1179,,143.8411,-14.5275,18.1179,,-13.37155721,2.231668736,-3.941428825,,1.89194834,-4.154544521,2.326915232,5.12388946,,#DIV/0!,#DIV/0!,#DIV/0!,#DIV/0!,,,,,,,,,,,,,,,,,,,,,,,,,,,,,,,
0.0916615,1.925628,1.789043,-2.206514,0.3228114,-0.9373998,0.1098322,-0.07079142,323.8674,165.3967,198.1521,,143.8674,-14.6033,18.1521,,-13.39785721,2.155868736,-3.907228825,,1.01099564,-2.996375263,0.551892733,3.210134342,,#DIV/0!,#DIV/0!,#DIV/0!,#DIV/0!,,,,,,,,,,,,,,,,,,,,,,,,,,,,,,,
0.113776,1.925207,1.788804,-2.206219,0.3227078,-0.9374194,0.1096222,-0.07132762,323.8865,165.338,198.1432,,143.8865,-14.662,18.1432,,-13.41695721,2.097168736,-3.916128825,,0.773344257,-4.542234725,0.892925458,4.693322225,,#DIV/0!,#DIV/0!,#DIV/0!,#DIV/0!,,,,,,,,,,,,,,,,,,,,,,,,,,,,,,,
0.1360307,1.924762,1.788684,-2.205987,0.3227526,-0.9373208,0.1096393,-0.07238626,323.9017,165.1949,198.1919,,143.9017,-14.8051,18.1919,,-13.43215721,1.954068736,-3.867428825,,1.048862938,-7.064469797,2.88309232,7.70188732,,0.637781208,-0.978882634,-0.663084715,1.343375383,,,,,,,,,,,,,,,,,,,,,,,,,,,,,,,
0.1579431,1.924372,1.788606,-2.20572,0.3227137,-0.937215,0.1098516,-0.07359697,323.9327,165.0262,198.2703,,143.9327,-14.9738,18.2703,,-13.46315721,1.785368736,-3.789028825,,0.773312501,-6.039428691,1.581993427,6.290899327,,0.780819916,0.121256387,-1.547323418,1.737409742,,,,,,,,,,,,,,,,,,,,,,,,,,,,,,,
0.1799293,1.92391,1.788474,-2.20542,0.3227767,-0.9371687,0.1095102,-0.07441485,323.9356,164.9299,198.2612,,143.9356,-15.0701,18.2612,,-13.46605721,1.689068736,-3.798128825,,0.648227028,-3.141209987,-1.047026402,3.373968398,,0.967117027,1.286037068,-2.398101058,2.887922327,,,,,,,,,,,,,,,,,,,,,,,,,,,,,,,
0.2024272,1.923191,1.788323,-2.205263,0.322582,-0.9372415,0.1091201,-0.07491439,323.9618,164.8871,198.2234,,143.9618,-15.1129,18.2234,,-13.49225721,1.646268736,-3.835928825,,1.396597702,-0.889784609,-1.950102746,2.558339796,,1.068231464,2.162657608,-2.868386525,3.747779029,,,,,,,,,,,,,,,,,,,,,,,,,,,,,,,
0.2244087,1.922441,1.78821,-2.205128,0.3222587,-0.937378,0.1087824,-0.07508843,323.9976,164.8898,198.1746,,143.9976,-15.1102,18.1746,,-13.52805721,1.648968736,-3.884728825,,0.836143283,1.331464381,-2.524099625,2.973720213,,1.058051879,2.749977953,-3.10278944,4.27891982,,,,,,,,,,,,,,,,,,,,,,,,,,,,,,,
0.2473212,1.921524,1.788214,-2.20496,0.3221529,-0.93748,0.1084169,-0.07479663,323.9986,164.948,198.1098,,143.9986,-15.052,18.1098,,-13.52905721,1.707168736,-3.949528825,,-0.937572609,8.696221389,-7.298363141,11.39163787,,0.959503349,3.397952324,-3.395880413,4.898849911,,,,,,,,,,,,,,,,,,,,,,,,,,,,,,,
0.26921,1.920643,1.788263,-2.204861,0.3220199,-0.9378278,0.1071612,-0.07279179,323.9566,165.2731,197.8522,,143.9566,-14.7269,17.8522,,-13.48705721,2.032268736,-4.207128825,,-0.981305748,14.77073573,-11.53732297,18.76825555,,0.838116933,4.303146795,-3.897550242,5.866038716,,,,,,,,,,,,,,,,,,,,,,,,,,,,,,,
0.2806198,1.9202,1.788232,-2.204811,0.3217866,-0.9380525,0.1065752,-0.07178202,323.9561,165.4407,197.7232,,143.9561,-14.5593,17.7232,,-13.48655721,2.199868736,-4.336128825,,0.69354008,15.6023398,-12.06980653,19.73814162,,0.751768556,5.232316336,-4.437865818,6.901952131,,,,,,,,,,,,,,,,,,,,,,,,,,,,,,,
0.3030532,1.919289,1.788144,-2.204892,0.3210066,-0.9386272,0.105303,-0.06960663,323.9882,165.8112,197.4353,,143.9882,-14.1888,17.4353,,-13.51865721,2.570368736,-4.624028825,,2.992015601,11.38315117,-7.680760645,14.05426526,,0.701346708,5.777208326,-4.554335723,7.38985772,,,,,,,,,,,,,,,,,,,,,,,,,,,,,,,
0.3247306,1.918688,1.78809,-2.204813,0.3200503,-0.939005,0.1053721,-0.06880511,324.0869,165.9467,197.3805,,144.0869,-14.0533,17.3805,,-13.61735721,2.705868736,-4.678828825,,3.740900024,5.158684036,-1.418361941,6.528254328,,0.688344537,5.732653234,-4.154351251,7.113070056,,,,,,,,,,,,,,,,,,,,,,,,,,,,,,,
0.3360668,1.918296,1.787986,-2.204897,0.3197368,-0.9391184,0.1055191,-0.06848928,324.1201,165.9928,197.377,,144.1201,-14.0072,17.377,,-13.65055721,2.751968736,-4.682328825,,1.759613724,3.480619953,-0.720322663,3.966083768,,0.594942826,4.924650485,-3.26441581,5.938227846,,,,,,,,,,,,,,,,,,,,,,,,,,,,,,,
0.3584186,1.917758,1.7879,-2.204667,0.3195554,-0.939213,0.1055109,-0.0680499,324.1333,166.0575,197.3517,,144.1333,-13.9425,17.3517,,-13.66375721,2.816668736,-4.707628825,,-0.270135248,5.42729156,-3.258289918,6.336001888,,0.364978392,3.650879657,-2.218522547,4.287653646,,,,,,,,,,,,,,,,,,,,,,,,,,,,,,,
0.3810569,1.917132,1.787724,-2.20454,0.3195255,-0.9393674,0.1049787,-0.06687259,324.1077,166.2377,197.2298,,144.1077,-13.7623,17.2298,,-13.63815721,2.996868736,-4.829528825,,-0.804679153,7.225293397,-5.628782309,9.194322351,,0.164136815,2.224595325,-1.260426247,2.56211623,,,,,,,,,,,,,,,,,,,,,,,,,,,,,,,
0.3925504,1.916796,1.787643,-2.204509,0.3194625,-0.9394588,0.1046258,-0.06644069,324.1022,166.3123,197.1623,,144.1022,-13.6877,17.1623,,-13.63265721,3.071468736,-4.897028825,,-0.073665951,5.014734239,-4.141010167,6.503918155,,-0.060033288,0.844546477,-0.413487812,0.942249923,,,,,,,,,,,,,,,,,,,,,,,,,,,,,,,
0.4145915,1.916479,1.78768,-2.204161,0.3193018,-0.9395704,0.1044174,-0.06596056,324.1095,166.3903,197.1092,,144.1095,-13.6097,17.1092,,-13.63995721,3.149468736,-4.950128825,,0.117828467,1.044167181,0.067884659,1.052984794,,-0.409118111,-0.55020683,0.529342979,0.866203887,,,,,,,,,,,,,,,,,,,,,,,,,,,,,,,
0.4261047,1.916433,1.787652,-2.203916,0.3193429,-0.9395313,0.1046096,-0.06601476,324.1084,166.3736,197.1385,,144.1084,-13.6264,17.1385,,-13.63885721,3.132768736,-4.920828825,,0.479198803,-3.720426184,4.152771734,5.596133983,,-0.898242086,-1.80837559,1.41455835,2.465367405,,,,,,,,,,,,,,,,,,,,,,,,,,,,,,,
0.4483071,1.916312,1.787602,-2.203566,0.3193493,-0.9393954,0.1053197,-0.06678485,324.1318,166.2406,197.2664,,144.1318,-13.7594,17.2664,,-13.66225721,2.999768736,-4.792928825,,0.182375463,-11.39382034,9.619057984,14.91236666,,-1.454713566,-2.524362725,1.812342042,3.431207135,,,,,,,,,,,,,,,,,,,,,,,,,,,,,,,
0.4705071,1.916637,1.78786,-2.202895,0.3199949,-0.9388599,0.1067097,-0.06898237,324.1165,165.8677,197.5656,,144.1165,-14.1323,17.5656,,-13.64695721,2.626868736,-4.493728825,,-2.15339436,-15.22755639,11.07251279,18.95035938,,-1.858262838,-2.818230588,1.877859324,3.862890118,,,,,,,,,,,,,,,,,,,,,,,,,,,,,,,
0.4922895,1.916336,1.787864,-2.202579,0.3210256,-0.9383065,0.1073116,-0.0707651,324.0377,165.5702,197.7544,,144.0377,-14.4298,17.7544,,-13.56815721,2.329368736,-4.304928825,,-3.548513111,-9.845474921,5.156888759,11.66699719,,-2.138494516,-2.910887124,1.822854685,4.0458895,,,,,,,,,,,,,,,,,,,,,,,,,,,,,,,
0.5142184,1.916249,1.787916,-2.20216,0.3217883,-0.9380012,0.1071261,-0.07162386,323.9614,165.4379,197.7905,,143.9614,-14.5621,17.7905,,-13.49185721,2.197068736,-4.268828825,,-3.895517081,-3.169899291,-0.527123306,5.049868694,,-2.395591816,-2.991138234,1.831332606,4.247298812,,,,,,,,,,,,,,,,,,,,,,,,,,,,,,,
0.5360664,1.916158,1.788027,-2.201674,0.3225183,-0.9378179,0.1064873,-0.07169343,323.8672,165.4312,197.7315,,143.8672,-14.5688,17.7315,,-13.39765721,2.190368736,-4.327828825,,-3.844562618,-2.529453194,0.186993745,4.605839972,,-2.633685455,-2.902028277,1.731202471,4.284288645,,,,,,,,,,,,,,,,,,,,,,,,,,,,,,,
0.5588346,1.916013,1.788248,-2.201163,0.323284,-0.9374933,0.1066431,-0.07225749,323.7903,165.323,197.8015,,143.7903,-14.677,17.8015,,-13.32075721,2.082168736,-4.257828825,,-3.366596076,-4.973042713,3.827039174,7.121190336,,-2.846670391,-2.584254969,1.420202241,4.098643734,,,,,,,,,,,,,,,,,,,,,,,,,,,,,,,
0.5809762,1.915773,1.788335,-2.200773,0.3240556,-0.9371405,0.1070386,-0.07279129,323.716,165.208,197.9029,,143.716,-14.792,17.9029,,-13.24645721,1.967168736,-4.156428825,,-3.49322922,-4.149148721,3.752826057,6.595588594,,-3.087765619,-2.002198907,0.904656472,3.789657017,,,,,,,,,,,,,,,,,,,,,,,,,,,,,,,
0.5921859,1.915685,1.788404,-2.200521,0.3244373,-0.9369861,0.1071478,-0.07291748,323.6753,165.1732,197.9357,,143.6753,-14.8268,17.9357,,-13.20575721,1.932368736,-4.123628825,,-3.486526811,-0.339662272,0.131402,3.505496562,,-3.226216757,-0.953446933,0.050148513,3.364528272,,,,,,,,,,,,,,,,,,,,,,,,,,,,,,, 
0.6035255,1.915533,1.788474,-2.200292,0.3246986,-0.9369369,0.1069233,-0.0727157,323.6374,165.2007,197.9055,,143.6374,-14.7993,17.9055,,-13.16785721,1.959868736,-4.153828825,,-3.913147057,4.222756594,-3.97335022,6.995134389,,-3.137599562,0.31223286,-0.916484177,3.28359005,,,,,,,,,,,,,,,,,,,,,,,,,,,,,,,
0.6259161,1.914882,1.78848,-2.200161,0.3253081,-0.9368804,0.1061905,-0.07178648,323.537,165.3355,197.7872,,143.537,-14.6645,17.7872,,-13.06745721,2.094668736,-4.272128825,,-4.146944057,6.182028973,-5.51856934,9.266565426,,-2.901922542,1.121106326,-1.460343835,3.436660872,,,,,,,,,,,,,,,,,,,,,,,,,,,,,,,
0.6477804,1.914189,1.788407,-2.200327,0.3257742,-0.9368731,0.1054351,-0.07087577,323.4537,165.4742,197.6614,,143.4537,-14.5258,17.6614,,-12.98415721,2.233368736,-4.397928825,,-3.168883262,6.173163675,-5.442701919,8.818887405,,-2.602207868,1.330777576,-1.513978018,3.291592956,,,,,,,,,,,,,,,,,,,,,,,,,,,,,,,
0.6701705,1.913536,1.788376,-2.200574,0.3260372,-0.9369182,0.104796,-0.07001337,323.3971,165.6086,197.5465,,143.3971,-14.3914,17.5465,,-12.92755721,2.367768736,-4.512828825,,-2.650975689,5.175220194,-3.975118327,7.043588707,,-2.237533789,1.395508762,-1.560117093,3.063979032,,,,,,,,,,,,,,,,,,,,,,,,,,,,,,,
0.6926647,1.913174,1.788482,-2.200373,0.326413,-0.9368775,0.1044663,-0.06929498,323.3347,165.7064,197.4831,,143.3347,-14.2936,17.4831,,-12.86515721,2.465568736,-4.576228825,,-2.655039162,3.846302623,-2.549323263,5.323751114,,-1.859634652,1.621705119,-1.861004181,3.090550936,,,,,,,,,,,,,,,,,,,,,,,,,,,,,,,
0.7145493,1.912821,1.788626,-2.200271,0.3267638,-0.9368264,0.1041874,-0.06875128,323.2792,165.7796,197.4332,,143.2792,-14.2204,17.4332,,-12.80965721,2.538768736,-4.626128825,,-1.617489342,2.239955319,-1.489545491,3.138856061,,-1.503641292,1.822663534,-2.172451935,3.209764307,,,,,,,,,,,,,,,,,,,,,,,,,,,,,,,
0.7324333,1.912803,1.788654,-2.200223,0.3268392,-0.936818,0.1041256,-0.06860048,323.2667,165.7999,197.4207,,143.2667,-14.2001,17.4207,,-12.79715721,2.559068736,-4.638628825,,-1.001370816,1.226280911,-1.493712173,2.176622255,,-1.111034841,1.722837071,-2.171683163,2.986431609,,,,,,,,,,,,,,,,,,,,,,,,,,,,,,,
0.7543693,1.912433,1.788606,-2.200401,0.3270135,-0.9368082,0.1037571,-0.0684623,323.2381,165.8288,197.3705,,143.2381,-14.1712,17.3705,,-12.76855721,2.587968736,-4.688828825,,-0.484711859,0.669880138,-1.913286792,2.084310758,,-0.659140068,1.144110956,-1.727144533,2.174047779,,,,,,,,,,,,,,,,,,,,,,,,,,,,,,,
0.7767996,1.912241,1.788585,-2.200471,0.3269317,-0.9368588,0.1034864,-0.06856941,323.2456,165.8293,197.336,,143.2456,-14.1707,17.336,,-12.77605721,2.588468736,-4.723328825,,0.00077368,-0.444173039,-1.224367686,1.302446359,,-0.297899906,0.48481346,-1.239965145,1.364295425,,,,,,,,,,,,,,,,,,,,,,,,,,,,,,,
0.7984328,1.912263,1.788644,-2.20028,0.3269958,-0.9368465,0.1032592,-0.06877468,323.2384,165.8096,197.3163,,143.2384,-14.1904,17.3163,,-12.76885721,2.568768736,-4.743028825,,0.896200408,-1.687947779,-0.412814225,1.955187576,,-0.094491716,0.164987921,-1.062998349,1.079868135,,,,,,,,,,,,,,,,,,,,,,,,,,,,,,,
0.8207834,1.912005,1.788537,-2.200658,0.3266634,-0.9369323,0.1031852,-0.06929423,323.2859,165.7545,197.3182,,143.2859,-14.2455,17.3182,,-12.81635721,2.513668736,-4.741128825,,1.546092717,-2.032490073,-0.084492973,2.555104235,,0.067741416,0.189267033,-1.195638125,1.212419661,,,,,,,,,,,,,,,,,,,,,,,,,,,,,,,
0.8432248,1.912287,1.788705,-2.200384,0.3265166,-0.9369709,0.1030674,-0.06963874,323.3076,165.7186,197.3125,,143.3076,-14.2814,17.3125,,-12.83805721,2.477768736,-4.746828825,,1.134684458,-1.53668932,-0.295994752,1.9330121,,0.300137884,0.133510159,-1.200734083,1.244857442,,,,,,,,,,,,,,,,,,,,,,,,,,,,,,,
0.8654145,1.912127,1.788617,-2.200708,0.3263084,-0.937031,0.1029545,-0.06997291,323.3365,165.6859,197.305,,143.3365,-14.3141,17.305,,-12.86695721,2.445068736,-4.754328825,,1.617357043,-1.637406292,0.141396041,2.305848219,,0.517025722,-0.208367565,-0.892592411,1.052356333,,,,,,,,,,,,,,,,,,,,,,,,,,,,,,,
0.8768516,1.91181,1.788605,-2.201031,0.3261524,-0.9370682,0.1029852,-0.07015603,323.3586,165.6653,197.3121,,143.3586,-14.3347,17.3121,,-12.88905721,2.424468736,-4.747228825,,1.961485,-3.300682906,1.805651974,4.242912927,,0.619869359,-0.435679541,-0.623673931,0.981337789,,,,,,,,,,,,,,,,,,,,,,,,,,,,,,,
0.8989548,1.9118,1.78872,-2.201002,0.3259342,-0.9370545,0.1032868,-0.0709051,323.4026,165.5592,197.3782,,143.4026,-14.4408,17.3782,,-12.93305721,2.318368736,-4.681128825,,0.549178048,-2.388838474,0.814762699,2.583018397,,0.629786245,-0.34157729,-0.655729789,0.971229796,,,,,,,,,,,,,,,,,,,,,,,,,,,,,,,
0.9211445,1.911744,1.788858,-2.200952,0.3260748,-0.937032,0.1030133,-0.07095531,323.3828,165.5597,197.348,,143.3828,-14.4403,17.348,,-12.91325721,2.318868736,-4.711328825,,-0.5245768,2.015431667,-3.14213357,3.769635127,,0.630484799,-0.05680209,-0.897176963,1.09802735,,,,,,,,,,,,,,,,,,,,,,,,,,,,,,,
0.9326206,1.91172,1.788921,-2.200926,0.3260129,-0.9371066,0.1026794,-0.07073688,323.381,165.6057,197.2915,,143.381,-14.3943,17.2915,,-12.91145721,2.364868736,-4.767828825,,-0.541944971,5.49084865,-5.699435414,7.932634322,,0.736519793,0.117404556,-1.004091248,1.250777546,,,,,,,,,,,,,,,,,,,,,,,,,,,,,,,
0.9545182,1.911675,1.789045,-2.200877,0.3259536,-0.9372754,0.1019248,-0.06986006,323.3607,165.7584,197.1497,,143.3607,-14.2416,17.1497,,-12.89115721,2.517568736,-4.909628825,,0.366114926,3.121463258,-2.615570718,4.088860867,,0.859644303,0.083148821,-0.959760118,1.291139628,,,,,,,,,,,,,,,,,,,,,,,,,,,,,,,
0.9766966,1.911521,1.788978,-2.20153,0.3256875,-0.9373343,0.1021571,-0.06997164,323.3975,165.7422,197.1773,,143.3975,-14.2578,17.1773,,-12.92795721,2.501368736,-4.882028825,,1.202052546,-2.204455093,2.516296242,3.554757285,,0.983121339,0.046377546,-0.926156622,1.351460149,,,,,,,,,,,,,,,,,,,,,,,,,,,,,,,
0.9985807,1.911049,1.788903,-2.20209,0.325678,-0.9372524,0.1026299,-0.07041955,323.4138,165.6617,197.2602,,143.4138,-14.3383,17.2602,,-12.94425721,2.420868736,-4.799128825,,0.335596466,-1.728774766,2.00222807,2.666496657,,1.07550571,-0.080210469,-0.829151329,1.36038163,,,,,,,,,,,,,,,,,,,,,,,,,,,,,,,
1.020308,1.911081,1.788916,-2.202219,0.3256899,-0.937247,0.1026793,-0.07036451,323.4122,165.6665,197.2649,,143.4122,-14.3335,17.2649,,-12.94265721,2.425668736,-4.794428825,,-0.355792335,1.893209391,-2.330012948,3.023208614,,1.069296337,-0.119455122,-0.907612756,1.407631023,,,,,,,,,,,,,,,,,,,,,,,,,,,,,,,
1.031751,1.911047,1.788918,-2.202238,0.325678,-0.9373035,0.1023282,-0.07017833,323.4049,165.7073,197.2091,,143.4049,-14.2927,17.2091,,-12.93535721,2.466468736,-4.850228825,,0.009854886,3.257904559,-4.363180942,5.44530873,,1.144842353,0.112386642,-1.160452971,1.6339969,,,,,,,,,,,,,,,,,,,,,,,,,,,,,,,
1.053647,1.910853,1.788797,-2.202645,0.325453,-0.9374543,0.1018432,-0.06991177,323.4193,165.7719,197.1248,,143.4193,-14.2281,17.1248,,-12.94975721,2.531068736,-4.934528825,,2.274655328,0.576738628,-1.802699936,2.959123411,,1.324113277,0.343864657,-1.305956413,1.891306698,,,,,,,,,,,,,,,,,,,,,,,,,,,,,,,
1.076131,1.910872,1.788714,-2.202736,0.3247854,-0.9376462,0.1018976,-0.07036334,323.5068,165.7315,197.1303,,143.5068,-14.2685,17.1303,,-13.03725721,2.490668736,-4.929028825,,3.146711346,-2.477814633,0.491811721,4.035249239,,1.523539826,0.198589974,-1.079267412,1.877612773,,,,,,,,,,,,,,,,,,,,,,,,,,,,,,,
1.098323,1.911801,1.789058,-2.201938,0.324427,-0.937723,0.1019093,-0.07097337,323.5601,165.6614,197.1467,,143.5601,-14.3386,17.1467,,-13.09055721,2.420568736,-4.912628825,,2.739885927,-2.014715895,0.14085069,3.403805804,,1.659669097,-0.112497214,-0.720390375,1.812765685,,,,,,,,,,,,,,,,,,,,,,,,,,,,,,,
1.109694,1.911401,1.788886,-2.202495,0.3241493,-0.9378099,0.1018881,-0.07112395,323.5951,165.6515,197.1415,,143.5951,-14.3485,17.1415,,-13.12555721,2.410668736,-4.917828825,,2.818353864,-3.283050483,1.402464854,4.548455413,,1.696967329,0.0359439,-0.867133307,1.906019479,,,,,,,,,,,,,,,,,,,,,,,,,,,,,,,
1.13201,1.91176,1.789069,-2.202201,0.323847,-0.9378092,0.1022069,-0.07204714,323.6522,165.5244,197.2143,,143.6522,-14.4756,17.2143,,-13.18265721,2.283568736,-4.845028825,,1.880763149,-3.810863397,0.785653426,4.321712758,,1.705439214,0.350998445,-1.196968434,2.112925994,,,,,,,,,,,,,,,,,,,,,,,,,,,,,,,
1.143483,1.911729,1.789094,-2.202227,0.323743,-0.9378472,0.1020051,-0.07230531,323.666,165.5023,197.1949,,143.666,-14.4977,17.1949,,-13.19645721,2.261468736,-4.864428825,,1.531276264,0.625104465,-2.472160094,2.974413912,,1.764850191,0.355081384,-1.198020745,2.162413626,,,,,,,,,,,,,,,,,,,,,,,,,,,,,,,
1.165583,1.911528,1.789079,-2.202464,0.323303,-0.9380586,0.1016737,-0.07199737,323.7071,165.5725,197.123,,143.7071,-14.4275,17.123,,-13.23755721,2.331668736,-4.936328825,,1.805945206,5.024645852,-5.033678315,7.338012088,,1.880713016,0.082665533,-0.875492646,2.076150864,,,,,,,,,,,,,,,,,,,,,,,,,,,,,,,
1.18767,1.911479,1.78904,-2.202493,0.3227614,-0.9383839,0.1009244,-0.07123941,323.7458,165.7243,196.9725,,143.7458,-14.2757,16.9725,,-13.27625721,2.483468736,-5.086828825,,2.050600162,3.602277775,-2.752478412,4.975691268,,1.787377067,-0.068472694,-0.622855059,1.894031076,,,,,,,,,,,,,,,,,,,,,,,,,,,,,,,
1.209977,1.911367,1.789058,-2.20251,0.322349,-0.9384943,0.1012586,-0.07117819,323.7982,165.7317,197.0017,,143.7982,-14.2683,17.0017,,-13.32865721,2.490868736,-5.057628825,,2.135795457,-0.922670189,2.049830768,3.100765823,,1.583037563,0.118987855,-0.659478425,1.719033981,,,,,,,,,,,,,,,,,,,,,,,,,,,,,,,
1.231979,1.911245,1.789036,-2.202549,0.3220878,-0.938516,0.1016868,-0.07146307,323.8405,165.6838,197.0631,,143.8405,-14.3162,17.0631,,-13.37095721,2.442968736,-4.996228825,,1.686929562,-0.274720605,0.608638123,1.814288599,,1.390007698,0.349579413,-0.771943073,1.627950637,,,,,,,,,,,,,,,,,,,,,,,,,,,,,,,
1.254097,1.911443,1.789155,-2.202149,0.3217741,-0.9386498,0.1015488,-0.0713155,323.8726,165.7198,197.0283,,143.8726,-14.2802,17.0283,,-13.40305721,2.478968736,-5.031028825,,0.44573097,2.366934323,-2.285628578,3.32041446,,1.215929252,0.597651093,-0.897840568,1.625357948,,,,,,,,,,,,,,,,,,,,,,,,,,,,,,,
1.276246,1.911162,1.789146,-2.202178,0.3217723,-0.9387202,0.1011801,-0.07091971,323.8602,165.7886,196.9619,,143.8602,-14.2114,16.9619,,-13.39065721,2.547768736,-5.097428825,,0.416550359,1.946287596,-2.343692992,3.07480836,,1.135942384,0.847993218,-0.943736783,1.702967032,,,,,,,,,,,,,,,,,,,,,,,,,,,,,,,
1.298501,1.911648,1.78948,-2.20131,0.3214831,-0.9388417,0.1009652,-0.07092926,323.8912,165.8061,196.9243,,143.8912,-14.1939,16.9243,,-13.42165721,2.565268736,-5.135028825,,1.516071613,-0.283501506,-0.170315648,1.551726026,,1.047737692,0.812638833,-0.80915068,1.553338652,,,,,,,,,,,,,,,,,,,,,,,,,,,,,,,
1.32089,1.911158,1.789303,-2.201645,0.3212318,-0.938888,0.1011794,-0.0711493,323.9279,165.7758,196.9545,,143.9279,-14.2242,16.9545,,-13.45835721,2.534968736,-5.104828825,,1.061287998,-1.388058328,1.481588689,2.29088262,,0.942987234,0.528459316,-0.544458167,1.210342459,,,,,,,,,,,,,,,,,,,,,,,,,,,,,,,
1.342819,1.910776,1.789193,-2.202075,0.3211948,-0.9388641,0.101397,-0.07132229,323.9385,165.7446,196.9899,,143.9385,-14.2554,16.9899,,-13.46895721,2.503768736,-5.069428825,,0.490297791,-0.040827493,0.015707962,0.492245415,,0.813803895,0.402064999,-0.483938816,1.028654374,,,,,,,,,,,,,,,,,,,,,,,,,,,,,,,
1.364741,1.910583,1.789109,-2.202,0.3210593,-0.9389402,0.1012103,-0.07119536,323.9494,165.774,196.9552,,143.9494,-14.226,16.9552,,-13.47985721,2.533168736,-5.104128825,,0.230497683,0.98297436,-1.321189738,1.662801882,,0.665797773,0.572630738,-0.745772976,1.152115432,,,,,,,,,,,,,,,,,,,,,,,,,,,,,,,
1.386827,1.910378,1.789128,-2.201758,0.3210392,-0.9389673,0.1010564,-0.07114658,323.9486,165.7878,196.9318,,143.9486,-14.2122,16.9318,,-13.47905721,2.546968736,-5.127528825,,0.555334061,-0.05811864,-0.234202578,0.605495288,,0.608831185,0.599438942,-0.858740952,1.211378752,,,,,,,,,,,,,,,,,,,,,,,,,,,,,,,
1.398162,1.910393,1.789181,-2.201494,0.3209453,-0.9389887,0.1011064,-0.07121661,323.9616,165.7794,196.9385,,143.9616,-14.2206,16.9385,,-13.49205721,2.538568736,-5.120828825,,0.840933861,-0.556415778,0.189002632,1.025909485,,0.62764589,0.498563333,-0.848954482,1.167573755,,,,,,,,,,,,,,,,,,,,,,,,,,,,,,,
1.420219,1.910406,1.789272,-2.201099,0.3208542,-0.9390172,0.1010609,-0.07131591,323.9734,165.7712,196.9338,,143.9734,-14.2288,16.9338,,-13.50385721,2.530368736,-5.125528825,,0.384615276,0.165497457,-0.722540753,0.83509488,,0.556629202,0.610426633,-0.973893321,1.277076718,,,,,,,,,,,,,,,,,,,,,,,,,,,,,,,
1.431745,1.910698,1.789469,-2.200541,0.3208162,-0.9390416,0.1009709,-0.07129356,323.9761,165.7793,196.9196,,143.9761,-14.2207,16.9196,,-13.50655721,2.538468736,-5.139728825,,0.444189248,1.330312137,-1.592675654,2.122180532,,0.401158479,0.855291724,-1.240569643,1.559315586,,,,,,,,,,,,,,,,,,,,,,,,,,,,,,,
1.453912,1.910265,1.789413,-2.200476,0.3206336,-0.9391429,0.1007584,-0.07108078,323.9906,165.8227,196.8763,,143.9906,-14.1773,16.8763,,-13.52105721,2.581868736,-5.183028825,,0.37121676,1.959151652,-1.965726848,2.800028414,,0.342089609,0.966312175,-1.450817353,1.77641648,,,,,,,,,,,,,,,,,,,,,,,,,,,,,,,
1.47656,1.910141,1.789387,-2.20015,0.3205509,-0.9392146,0.1005184,-0.07084528,323.9926,165.8671,196.8315,,143.9926,-14.1329,16.8315,,-13.52305721,2.626268736,-5.227828825,,0.211715869,1.294684413,-1.354013309,1.885307237,,0.317508814,0.758401837,-1.33734843,1.569868152,,,,,,,,,,,,,,,,,,,,,,,,,,,,,,,
1.498343,1.91027,1.789553,-2.199389,0.3204702,-0.9392552,0.1004366,-0.07078847,323.9999,165.8808,196.8156,,143.9999,-14.1192,16.8156,,-13.53035721,2.639968736,-5.243728825,,0.946363913,0.073786057,-0.859945566,1.280841682,,0.227969367,0.747938565,-1.337921536,1.549650336,,,,,,,,,,,,,,,,,,,,,,,,,,,,,,,
1.520364,1.909585,1.789295,-2.199583,0.3201879,-0.9393535,0.1002761,-0.07098911,324.0342,165.8702,196.7938,,144.0342,-14.1298,16.7938,,-13.56465721,2.629368736,-5.265528825,,0.690322138,1.055551404,-2.158404466,2.499888649,,0.060144469,1.331373409,-1.848543851,2.278878426,,,,,,,,,,,,,,,,,,,,,,,,,,,,,,,
1.531666,1.909225,1.789156,-2.199673,0.3201551,-0.9393995,0.1000468,-0.07085096,324.0322,165.8995,196.7562,,144.0322,-14.1005,16.7562,,-13.56265721,2.658668736,-5.303128825,,-0.506666586,3.400510496,-3.96789789,5.2501806,,-0.04850253,1.819014381,-2.228195474,2.876807412,,,,,,,,,,,,,,,,,,,,,,,,,,,,,,,
1.542905,1.909126,1.789033,-2.199604,0.3201579,-0.9394504,0.09974146,-0.07059369,324.0228,165.9468,196.7044,,144.0228,-14.0532,16.7044,,-13.55325721,2.705968736,-5.354928825,,-0.505047785,2.899744676,-3.637107836,4.678904344,,-0.020379855,1.661430148,-1.967139453,2.574956913,,,,,,,,,,,,,,,,,,,,,,,,,,,,,,,
1.564779,1.909167,1.789122,-2.198886,0.3201226,-0.939513,0.09935579,-0.07046513,324.019,165.9816,196.6461,,144.019,-14.0184,16.6461,,-13.54945721,2.740768736,-5.413228825,,0.293392689,0.055207533,-1.251631539,1.286743428,,0.031129544,1.207480238,-1.487530472,1.916174439,,,,,,,,,,,,,,,,,,,,,,,,,,,,,,,
1.587001,1.908592,1.788948,-2.198954,0.3200168,-0.9395317,0.09931603,-0.07075088,324.0359,165.9487,196.6497,,144.0359,-14.0513,16.6497,,-13.56635721,2.707868736,-5.409628825,,0.170747452,-2.743661881,1.490803961,3.127192297,,0.027527621,0.941729219,-1.285563362,1.593827108,,,,,,,,,,,,,,,,,,,,,,,,,,,,,,,
1.609912,1.908371,1.788959,-2.19856,0.3202139,-0.9393949,0.09957609,-0.0713084,324.0263,165.8569,196.7143,,144.0263,-14.1431,16.7143,,-13.55675721,2.616068736,-5.345028825,,-0.933515121,0.846951816,-1.328640116,1.831409953,,0.003404311,1.062829269,-1.461768483,1.807314235,,,,,,,,,,,,,,,,,,,,,,,,,,,,,,,
1.631804,1.908377,1.789051,-2.197756,0.3202887,-0.9394966,0.09889767,-0.07057238,323.9946,165.9817,196.5944,,143.9946,-14.0183,16.5944,,-13.52505721,2.740868736,-5.464928825,,-1.626389616,7.52653434,-6.872292675,10.3209626,,-0.058125046,1.292287721,-1.720661183,2.152686921,,,,,,,,,,,,,,,,,,,,,,,,,,,,,,,
1.654023,1.907845,1.789012,-2.197692,0.3203231,-0.9396808,0.09791744,-0.0693211,323.9545,166.1895,196.4107,,143.9545,-13.8105,16.4107,,-13.48495721,2.948668736,-5.648628825,,-0.57147712,5.782916855,-4.746468466,7.503177751,,-0.035637521,1.056229848,-1.529224545,1.858875798,,,,,,,,,,,,,,,,,,,,,,,,,,,,,,,
1.676386,1.907609,1.788897,-2.197424,0.320144,-0.9397713,0.09785153,-0.06901368,323.9693,166.239,196.3833,,143.9693,-13.761,16.3833,,-13.49975721,2.998168736,-5.676028825,,0.750210046,-1.88309757,2.671187514,3.353224464,,0.089836998,0.501953227,-0.997623475,1.120392934,,,,,,,,,,,,,,,,,,,,,,,,,,,,,,,
1.698327,1.907621,1.788993,-2.197049,0.320195,-0.9396143,0.09869134,-0.06971519,323.9877,166.1078,196.5274,,143.9877,-13.8922,16.5274,,-13.51815721,2.866968736,-5.531928825,,1.113811432,-4.571036694,4.642241097,6.60948975,,0.189638241,0.015471663,-0.500799764,0.535726086,,,,,,,,,,,,,,,,,,,,,,,,,,,,,,,
1.709774,1.907483,1.789008,-2.196944,0.320116,-0.9396054,0.09886724,-0.06994928,324.0036,166.0716,196.5585,,144.0036,-13.9284,16.5585,,-13.53405721,2.830768736,-5.500828825,,0.324391763,-1.495611603,0.659845581,1.666577413,,0.257443229,-0.273702271,-0.207212875,0.429100367,,,,,,,,,,,,,,,,,,,,,,,,,,,,,,,
1.731389,1.907401,1.78908,-2.196602,0.3202244,-0.9395935,0.09860744,-0.06997899,323.9876,166.0753,196.5283,,143.9876,-13.9247,16.5283,,-13.51805721,2.834468736,-5.531028825,,-0.101887158,2.868985071,-3.644679876,4.639520204,,0.256863001,-0.131741399,-0.286475279,0.406697041,,,,,,,,,,,,,,,,,,,,,,,,,,,,,,,
1.74276,1.907148,1.788868,-2.196669,0.3200794,-0.939705,0.09824385,-0.06965617,323.9937,166.1386,196.4613,,143.9937,-13.8614,16.4613,,-13.52415721,2.897768736,-5.598028825,,0.146482265,3.056745925,-4.225550666,5.217320302,,0.320144617,0.09213717,-0.45218302,0.561650529,,,,,,,,,,,,,,,,,,,,,,,,,,,,,,,
1.764527,1.906828,1.788788,-2.196666,0.3200788,-0.9397464,0.0978126,-0.06970664,323.9884,166.1505,196.4056,,143.9884,-13.8495,16.4056,,-13.51885721,2.909668736,-5.653728825,,0.982659972,-2.013200944,0.330271826,2.26443771,,0.440527102,-0.095764255,-0.304100803,0.54379428,,,,,,,,,,,,,,,,,,,,,,,,,,,,,,,
1.786394,1.906498,1.788655,-2.196661,0.3198152,-0.9397463,0.0981774,-0.07040241,324.0367,166.0505,196.476,,144.0367,-13.9495,16.476,,-13.56715721,2.809668736,-5.583328825,,1.124502154,-3.80508557,2.942916016,4.940034005,,0.519450494,-0.347465384,-0.059201052,0.627746584,,,,,,,,,,,,,,,,,,,,,,,,,,,,,,,
1.808784,1.90591,1.78838,-2.196874,0.3199033,-0.9396553,0.09847837,-0.07079478,324.0376,165.9825,196.5357,,144.0376,-14.0175,16.5357,,-13.56805721,2.741668736,-5.523628825,,0.792368373,-3.424515664,2.821600406,4.507392153,,0.56349987,-0.307006552,-0.059098295,0.644420465,,,,,,,,,,,,,,,,,,,,,,,,,,,,,,,
1.831056,1.905505,1.788149,-2.196948,0.3197387,-0.9396315,0.09883257,-0.07135812,324.072,165.8976,196.602,,144.072,-14.1024,16.602,,-13.60245721,2.656768736,-5.457328825,,1.174857531,-3.704053612,2.564998026,4.656126958,,0.552400249,0.00456582,-0.327330157,0.642115187,,,,,,,,,,,,,,,,,,,,,,,,,,,,,,,
1.853163,1.905003,1.787877,-2.197091,0.319693,-0.939585,0.09902642,-0.07190419,324.0898,165.8181,196.6496,,144.0898,-14.1819,16.6496,,-13.62025721,2.577268736,-5.409728825,,0.163204492,-0.898170535,0.4603927,1.022402785,,0.56029465,0.415565949,-0.659299768,0.959844433,,,,,,,,,,,,,,,,,,,,,,,,,,,,,,,
1.864442,1.904678,1.787854,-2.197339,0.3197106,-0.9395963,0.09896147,-0.07176779,324.0844,165.8384,196.6357,,144.0844,-14.1616,16.6357,,-13.61485721,2.597568736,-5.423628825,,-0.11085412,3.75737321,-3.482840744,5.124482581,,0.548905834,0.526418319,-0.703363002,1.035921509,,,,,,,,,,,,,,,,,,,,,,,,,,,,,,,
1.886227,1.905019,1.787994,-2.196427,0.3194797,-0.9397956,0.09829208,-0.07110373,324.09,165.9629,196.5108,,144.09,-14.0371,16.5108,,-13.62045721,2.722068736,-5.548528825,,-0.061417304,5.08381582,-4.947223854,7.093939614,,0.523762038,0.431165093,-0.555549024,0.876849318,,,,,,,,,,,,,,,,,,,,,,,,,,,,,,,
1.897546,1.904948,1.787998,-2.196246,0.3194427,-0.9398562,0.09804025,-0.0708152,324.0857,166.0133,196.4637,,144.0857,-13.9867,16.4637,,-13.61615721,2.772468736,-5.595628825,,0.454526979,2.51080217,-1.562771698,2.992152685,,0.496719191,0.424868065,-0.47436968,0.807631983,,,,,,,,,,,,,,,,,,,,,,,,,,,,,,,
1.920045,1.904724,1.787953,-2.196147,0.3192111,-0.9399165,0.09830754,-0.07068926,324.1147,166.0261,196.487,,144.1147,-13.9739,16.487,,-13.64515721,2.785268736,-5.572328825,,1.322851936,-1.357132755,2.672523352,3.276297853,,0.46227327,0.360514508,-0.397290984,0.708171881,,,,,,,,,,,,,,,,,,,,,,,,,,,,,,,
1.943041,1.903899,1.7877,-2.196742,0.3190843,-0.9398623,0.09895296,-0.07107963,324.1459,165.9506,196.5861,,144.1459,-14.0494,16.5861,,-13.67635721,2.709768736,-5.473228825,,0.969516348,-0.520595848,1.155226893,1.595472081,,0.437572865,0.43504221,-0.494304456,0.79061282,,,,,,,,,,,,,,,,,,,,,,,,,,,,,,,
1.964852,1.903195,1.787453,-2.197022,0.3189117,-0.939962,0.09874953,-0.07081888,324.1586,165.9995,196.5425,,144.1586,-14.0005,16.5425,,-13.68905721,2.758668736,-5.516828825,,0.427018976,3.847390066,-3.655759365,5.324409081,,0.376641742,0.671747087,-0.738927093,1.067293961,,,,,,,,,,,,,,,,,,,,,,,,,,,,,,,
1.976259,1.903098,1.787465,-2.196927,0.3187959,-0.9400602,0.09842955,-0.07048184,324.1617,166.0617,196.4819,,144.1617,-13.9383,16.4819,,-13.69215721,2.820868736,-5.577428825,,-0.249941763,4.31006588,-4.217501921,6.035433806,,0.429548513,0.548424111,-0.729844117,1.00893675,,,,,,,,,,,,,,,,,,,,,,,,,,,,,,,
1.987404,1.903021,1.787368,-2.196985,0.3188139,-0.9400903,0.09823043,-0.07027625,324.1531,166.097,196.4471,,144.1531,-13.903,16.4471,,-13.68355721,2.856168736,-5.612228825,,-0.180387082,1.818453986,-2.303968944,2.940678033,,0.514603605,-0.132604308,-0.283413988,0.602265939,,,,,,,,,,,,,,,,,,,,,,,,,,,,,,,
2.009552,1.902543,1.787164,-2.197278,0.3187111,-0.9401475,0.09800209,-0.07029608,324.1622,166.1074,196.4142,,144.1622,-13.8926,16.4142,,-13.69265721,2.866568736,-5.645128825,,0.631102959,-2.095062309,1.385603292,2.589879053,,0.593971363,-0.917791056,0.25203153,1.121901197,,,,,,,,,,,,,,,,,,,,,,,,,,,,,,,
2.031635,1.902526,1.787042,-2.197117,0.3187051,-0.9400503,0.09851324,-0.07090656,324.181,166.0045,196.5082,,144.181,-13.9955,16.5082,,-13.71145721,2.763668736,-5.551128825,,0.676705189,-4.641681807,3.944939061,6.129085095,,0.605545865,-1.314890794,0.375360271,1.495499557,,,,,,,,,,,,,,,,,,,,,,,,,,,,,,,
2.053544,1.902284,1.786966,-2.197199,0.3187522,-0.9399463,0.09889941,-0.07153299,324.192,165.9032,196.5878,,144.192,-14.0968,16.5878,,-13.72245721,2.662368736,-5.471528825,,0.471263105,-2.455655544,1.560425273,2.947415833,,0.528475117,-1.220085386,0.010905128,1.329666583,,,,,,,,,,,,,,,,,,,,,,,,,,,,,,,
2.075794,1.901599,1.786664,-2.197739,0.3186712,-0.9399765,0.09880135,-0.07163261,324.2018,165.8968,196.5764,,144.2018,-14.1032,16.5764,,-13.73225721,2.655968736,-5.482928825,,0.382752936,-0.626890202,-0.615096254,0.958036814,,0.489822051,-1.123116762,-0.245440636,1.249623146,,,,,,,,,,,,,,,,,,,,,,,,,,,,,,,
2.097944,1.901475,1.786635,-2.19768,0.3186211,-0.9399948,0.09862155,-0.07186314,324.209,165.8754,196.5605,,144.209,-14.1246,16.5605,,-13.73945721,2.634568736,-5.498828825,,0.850992515,-2.501369224,0.578471394,2.704748678,,0.498491641,-1.444246284,-0.037747352,1.528321336,,,,,,,,,,,,,,,,,,,,,,,,,,,,,,,
2.12024,1.900791,1.786321,-2.198481,0.3184765,-0.9399782,0.09875715,-0.07253124,324.2397,165.7854,196.6023,,144.2397,-14.2146,16.6023,,-13.77015721,2.544568736,-5.457028825,,0.994862067,-5.095996233,2.320750931,5.68725004,,0.54564856,-1.752392372,0.135281831,1.840356637,,,,,,,,,,,,,,,,,,,,,,,,,,,,,,,
2.142107,1.900371,1.786134,-2.198875,0.3185224,-0.9398735,0.0988985,-0.07348734,324.2531,165.6508,196.6628,,144.2531,-14.3492,16.6628,,-13.78355721,2.409968736,-5.396528825,,0.970363557,-5.123611909,2.013567875,5.589942756,,0.51453545,-1.758108502,0.09289165,1.834208574,,,,,,,,,,,,,,,,,,,,,,,,,,,,,,,
2.164322,1.900227,1.785927,-2.198895,0.3183799,-0.9398638,0.09891659,-0.07420088,324.2826,165.5599,196.6908,,144.2826,-14.4401,16.6908,,-13.81305721,2.319068736,-5.368528825,,0.604995501,-2.651494419,0.040501936,2.719941657,,0.371594542,-1.56468339,-0.141922434,1.614453031,,,,,,,,,,,,,,,,,,,,,,,,,,,,,,,
2.186367,1.899626,1.78566,-2.199363,0.3184067,-0.9398625,0.09862594,-0.0744882,324.28,165.5332,196.6648,,144.28,-14.4668,16.6648,,-13.81045721,2.292368736,-5.394528825,,0.320932211,-0.12466246,-2.065393512,2.093893162,,0.244036466,-1.437965908,-0.378270569,1.506780797,,,,,,,,,,,,,,,,,,,,,,,,,,,,,,,
2.209136,1.899103,1.785424,-2.199799,0.3182045,-0.9399772,0.09816039,-0.0745208,324.2973,165.5551,196.5976,,144.2973,-14.4449,16.5976,,-13.82775721,2.314268736,-5.461728825,,0.46702649,0.739996273,-2.177268035,2.346530273,,0.133301523,-1.641366861,-0.294800419,1.672950016,,,,,,,,,,,,,,,,,,,,,,,,,,,,,,,
2.230944,1.898549,1.78516,-2.200187,0.3181443,-0.9400201,0.09794589,-0.07451911,324.3011,165.5664,196.567,,144.3011,-14.4336,16.567,,-13.83155721,2.325568736,-5.492328825,,0.539723652,-0.327293723,-0.955746671,1.145370901,,-0.044174752,-1.646173493,-0.337931744,1.681081926,,,,,,,,,,,,,,,,,,,,,,,,,,,,,,,
2.25337,1.897882,1.784912,-2.200764,0.3179947,-0.9400629,0.09780826,-0.07479773,324.3214,165.5401,196.5556,,144.3214,-14.4599,16.5556,,-13.85185721,2.299268736,-5.503728825,,0.363098184,0.304166734,-1.968122548,2.024318171,,-0.263007789,-1.146005471,-0.774173277,1.407780487,,,,,,,,,,,,,,,,,,,,,,,,,,,,,,,
2.275716,1.897326,1.784755,-2.201212,0.3179433,-0.9401442,0.09728399,-0.0746775,324.3174,165.5799,196.479,,144.3174,-14.4201,16.479,,-13.84785721,2.339068736,-5.580328825,,-0.584857514,1.744144294,-2.855041294,3.396374305,,-0.408346505,-0.680512914,-1.117379658,1.370540767,,,,,,,,,,,,,,,,,,,,,,,,,,,,,,,
2.287021,1.897163,1.784721,-2.201313,0.318001,-0.9401509,0.09711014,-0.07457367,324.3062,165.5992,196.4532,,144.3062,-14.4008,16.4532,,-13.83665721,2.358368736,-5.606128825,,-1.227128852,0.419464153,-1.666979792,2.112017288,,-0.443211375,-0.722959487,-0.958217663,1.279565485,,,,,,,,,,,,,,,,,,,,,,,,,,,,,,,
2.309364,1.897077,1.784758,-2.201266,0.3182668,-0.9400772,0.09681754,-0.07474851,324.2735,165.5798,196.4297,,144.2735,-14.4202,16.4297,,-13.80395721,2.338968736,-5.629628825,,-0.9815498,-2.994354541,0.872413307,3.269664219,,-0.417979597,-1.084910361,-0.534720231,1.279712139,,,,,,,,,,,,,,,,,,,,,,,,,,,,,,,
2.331784,1.896837,1.78482,-2.201457,0.318496,-0.9399211,0.09699706,-0.07549957,324.2623,165.465,196.4924,,144.2623,-14.535,16.4924,,-13.79275721,2.224168736,-5.566928825,,-0.968291152,-5.099867942,2.645537224,5.826243042,,-0.435929747,-1.216728281,-0.32875497,1.333619992,,,,,,,,,,,,,,,,,,,,,,,,,,,,,,,
2.353913,1.896499,1.78474,-2.201839,0.3188849,-0.9397213,0.09709226,-0.0762191,324.2305,165.3526,196.5476,,144.2305,-14.6474,16.5476,,-13.76095721,2.111768736,-5.511728825,,-1.924438634,-0.689376418,-1.17580348,2.358223426,,-0.500346148,-1.100863749,-0.403274889,1.274706985,,,,,,,,,,,,,,,,,,,,,,,,,,,,,,,
2.376261,1.896355,1.784691,-2.202032,0.3191806,-0.9397337,0.09635749,-0.07576054,324.1766,165.4353,196.4393,,144.1766,-14.5647,16.4393,,-13.70705721,2.194468736,-5.620028825,,-1.993836963,4.000815064,-5.092668544,6.776221654,,-0.469021741,-1.037481637,-0.453721948,1.225648052,,,,,,,,,,,,,,,,,,,,,,,,,,,,,,,
2.397837,1.896196,1.784606,-2.202311,0.3193019,-0.939807,0.09562284,-0.0752693,324.1426,165.5281,196.3241,,144.1426,-14.4719,16.3241,,-13.67305721,2.287268736,-5.735228825,,-0.89454125,0.955407014,-2.140932019,2.509301999,,-0.367959087,-1.087171536,-0.287660584,1.183251643,,,,,,,,,,,,,,,,,,,,,,,,,,,,,,,
2.409091,1.896096,1.78455,-2.202527,0.3193521,-0.9397732,0.09564231,-0.07545278,324.1402,165.5012,196.336,,144.1402,-14.4988,16.336,,-13.67065721,2.260368736,-5.723328825,,0.517120257,-5.675417359,4.082673815,7.010420889,,-0.212705564,-1.130038237,-0.078647072,1.15256906,,,,,,,,,,,,,,,,,,,,,,,,,,,,,,,
2.430574,1.895834,1.784371,-2.203055,0.3193976,-0.9395841,0.09639598,-0.07664675,324.167,165.3087,196.4887,,144.167,-14.6913,16.4887,,-13.69745721,2.067868736,-5.570628825,,0.933008607,-7.356855776,5.545968543,9.260215929,,-0.008252784,-1.108468822,0.07358265,1.110939082,,,,,,,,,,,,,,,,,,,,,,,,,,,,,,,
2.452562,1.895043,1.784035,-2.204221,0.3194527,-0.9394591,0.09678082,-0.07746061,324.1806,165.1822,196.5763,,144.1806,-14.8178,16.5763,,-13.71105721,1.941368736,-5.483028825,,0.087580262,-1.838295422,0.612154881,1.939519002,,0.112952236,-0.873178278,0.071161527,0.883324671,,,,,,,,,,,,,,,,,,,,,,,,,,,,,,,
2.474666,1.894836,1.783962,-2.204543,0.3194522,-0.9395171,0.09639505,-0.07723878,324.1708,165.2281,196.5153,,144.1708,-14.7719,16.5153,,-13.70125721,1.987268736,-5.544028825,,-0.370386724,2.24623518,-3.14602698,3.883329058,,0.190842846,-0.176785604,-0.300359963,0.39735406,,,,,,,,,,,,,,,,,,,,,,,,,,,,,,,
2.496521,1.894614,1.783842,-2.205064,0.319409,-0.9396011,0.09589966,-0.07701185,324.1643,165.2809,196.4381,,144.1643,-14.7191,16.4381,,-13.69475721,2.040068736,-5.621228825,,0.946940943,0.496673736,-1.611558439,1.934037887,,0.361027526,0.462827381,-0.621970008,0.85521737,,,,,,,,,,,,,,,,,,,,,,,,,,,,,,,
2.519156,1.894336,1.783681,-2.205822,0.3190383,-0.9396968,0.09593903,-0.07733094,324.2139,165.2487,196.4451,,144.2139,-14.7513,16.4451,,-13.74435721,2.007868736,-5.614228825,,1.676912695,-0.341801955,0.190675191,1.721981937,,0.614481053,0.504076069,-0.399210536,0.889409186,,,,,,,,,,,,,,,,,,,,,,,,,,,,,,,
2.541349,1.894032,1.783504,-2.206506,0.3188173,-0.9397703,0.09603467,-0.07723107,324.2397,165.2651,196.4467,,144.2397,-14.7349,16.4467,,-13.77015721,2.024268736,-5.612628825,,1.433438276,1.186877178,-0.137865641,1.866126915,,0.841974611,0.373410807,-0.018431104,0.921247297,,,,,,,,,,,,,,,,,,,,,,,,,,,,,,,
2.552849,1.893886,1.783426,-2.206865,0.3186394,-0.9398351,0.09608199,-0.07711831,324.2593,165.2839,196.4427,,144.2593,-14.7161,16.4427,,-13.78975721,2.043068736,-5.616628825,,1.430757288,0.699866556,0.312006588,1.623030414,,0.933919522,0.582027648,-0.011233545,1.100494456,,,,,,,,,,,,,,,,,,,,,,,,,,,,,,,
2.574972,1.894043,1.783524,-2.207016,0.3184514,-0.9398767,0.09627982,-0.07714052,324.2849,165.2787,196.4642,,144.2849,-14.7213,16.4642,,-13.81535721,2.037868736,-5.595128825,,0.59411546,0.064422532,0.840938713,1.031649825,,0.949592744,1.071607329,-0.333181774,1.470060796,,,,,,,,,,,,,,,,,,,,,,,,,,,,,,,
2.597506,1.893809,1.783408,-2.207557,0.3184493,-0.9398706,0.0964357,-0.07702917,324.2856,165.2869,196.4802,,144.2856,-14.7131,16.4802,,-13.81605721,2.046068736,-5.579128825,,0.044286785,3.953236817,-2.184242143,4.51674179,,0.976570274,1.343320347,-0.5157918,1.739034282,,,,,,,,,,,,,,,,,,,,,,,,,,,,,,,
2.620111,1.893689,1.783384,-2.208218,0.3182186,-0.9400842,0.09596878,-0.07595216,324.2869,165.4574,196.3654,,144.2869,-14.5426,16.3654,,-13.81735721,2.216568736,-5.693928825,,0.287962202,7.625592382,-5.356734065,9.323474741,,1.042052802,1.270510826,-0.399634695,1.691088315,,,,,,,,,,,,,,,,,,,,,,,,,,,,,,,
2.642294,1.89369,1.783314,-2.208727,0.3179007,-0.9403294,0.09543455,-0.07491309,324.2984,165.6284,196.2404,,144.2984,-14.3716,16.2404,,-13.82885721,2.387568736,-5.818928825,,1.301058893,4.537048012,-2.196795414,5.206099212,,1.065741233,1.161213045,-0.238108807,1.594025067,,,,,,,,,,,,,,,,,,,,,,,,,,,,,,,
2.653572,1.89341,1.783154,-2.209337,0.3177064,-0.9403861,0.09562501,-0.07478309,324.3219,165.6438,196.2544,,144.3219,-14.3562,16.2544,,-13.85235721,2.402968736,-5.804928825,,2.062875001,-0.743241391,2.809200603,3.563631443,,1.081548938,1.001910922,-0.065986268,1.475780399,,,,,,,,,,,,,,,,,,,,,,,,,,,,,,,
2.665178,1.893315,1.783094,-2.209726,0.3175743,-0.9403811,0.09598353,-0.07494889,324.3456,165.6107,196.3052,,144.3456,-14.3893,16.3052,,-13.87605721,2.369868736,-5.754128825,,1.712404095,-2.96339843,4.176242077,5.399542196,,1.122800748,0.825328721,0.076780102,1.395616065,,,,,,,,,,,,,,,,,,,,,,,,,,,,,,,
2.687163,1.893414,1.783073,-2.210225,0.3174424,-0.9403383,0.09655615,-0.07530779,324.376,165.5431,196.3926,,144.376,-14.4569,16.3926,,-13.90645721,2.302268736,-5.666728825,,1.1367605,-0.992319915,1.360641567,2.031814146,,1.106879091,0.891833628,0.021601094,1.421624123,,,,,,,,,,,,,,,,,,,,,,,,,,,,,,,
2.709728,1.893111,1.78285,-2.211109,0.3172403,-0.9404278,0.09642017,-0.07521443,324.3961,165.5677,196.3643,,144.3961,-14.4323,16.3643,,-13.92655721,2.326868736,-5.695028825,,0.43828815,1.693973806,-1.761775455,2.483041786,,1.121468355,1.10597717,-0.163570984,1.583550516,,,,,,,,,,,,,,,,,,,,,,,,,,,,,,,
2.730879,1.893018,1.782722,-2.211759,0.3171698,-0.9404995,0.09616042,-0.07494799,324.3958,165.6163,196.3163,,144.3958,-14.3837,16.3163,,-13.92625721,2.375468736,-5.743028825,,0.480886133,1.299711412,-1.63598461,2.144049177,,1.214174177,0.969939841,-0.084075224,1.55630038,,,,,,,,,,,,,,,,,,,,,,,,,,,,,,,
2.74215,1.893178,1.782783,-2.211847,0.3170703,-0.9405384,0.09609245,-0.07496797,324.4068,165.6197,196.305,,144.4068,-14.3803,16.305,,-13.93725721,2.378868736,-5.754328825,,1.254890555,-0.924197426,0.488278104,1.633189118,,1.313335332,0.453713904,0.318512036,1.425537063,,,,,,,,,,,,,,,,,,,,,,,,,,,,,,,
2.764382,1.893274,1.782758,-2.212261,0.3168625,-0.9405544,0.09636971,-0.07528979,324.4409,165.5719,196.349,,144.4409,-14.4281,16.349,,-13.97135721,2.331068736,-5.710328825,,1.88241285,-2.412729551,2.428268187,3.906562225,,1.310662614,0.140775878,0.512126722,1.414188147,,,,,,,,,,,,,,,,,,,,,,,,,,,,,,,
2.786659,1.893339,1.782696,-2.212672,0.3165525,-0.9405833,0.09680122,-0.0756767,324.4906,165.5123,196.4131,,144.4906,-14.4877,16.4131,,-14.02105721,2.271468736,-5.646228825,,1.969711806,-1.108691433,1.718097174,2.839158184,,1.198744763,0.236620308,0.28645512,1.25500387,,,,,,,,,,,,,,,,,,,,,,,,,,,,,,,
2.808492,1.893628,1.782783,-2.212945,0.3162491,-0.9406717,0.09698132,-0.07561702,324.5279,165.5223,196.4253,,144.5279,-14.4777,16.4253,,-14.05835721,2.281468736,-5.634028825,,1.223775746,1.564430347,-0.405320519,2.027154191,,1.115712429,0.520287204,-0.080435007,1.233686666,,,,,,,,,,,,,,,,,,,,,,,,,,,,,,,
2.830545,1.893907,1.782805,-2.213162,0.3160472,-0.9407761,0.09691899,-0.07524157,324.5442,165.5812,196.3951,,144.5442,-14.4188,16.3951,,-14.07465721,2.340368736,-5.664228825,,0.7837759,2.848288575,-1.566298291,3.343701961,,1.130500297,0.649766714,-0.238962357,1.325643509,,,,,,,,,,,,,,,,,,,,,,,,,,,,,,,
2.853118,1.894255,1.782911,-2.21337,0.3158114,-0.9409006,0.09680691,-0.07481845,324.5629,165.6495,196.3553,,144.5629,-14.3505,16.3553,,-14.09335721,2.408668736,-5.704028825,,1.249462474,2.184751548,-1.150797263,2.767423014,,1.224018619,0.579758139,-0.169453814,1.364937975,,,,,,,,,,,,,,,,,,,,,,,,,,,,,,,
2.874848,1.894481,1.782882,-2.213699,0.3154852,-0.9410185,0.09684177,-0.07466543,324.5992,165.6787,196.3436,,144.5992,-14.3213,16.3436,,-14.12965721,2.437868736,-5.715728825,,1.577057216,0.914655198,-0.123099686,1.827253985,,1.277406214,0.477532362,-0.01727151,1.3638556,,,,,,,,,,,,,,,,,,,,,,,,,,,,,,,
2.897091,1.894772,1.782903,-2.213918,0.3152122,-0.9411012,0.09697133,-0.07460823,324.6322,165.6895,196.3501,,144.6322,-14.3105,16.3501,,-14.16265721,2.448668736,-5.709228825,,1.266313555,0.468853673,0.320195496,1.387767611,,1.289368705,0.450377,0.062493948,1.367192962,,,,,,,,,,,,,,,,,,,,,,,,,,,,,,,
2.919207,1.895088,1.782956,-2.214079,0.3150201,-0.9411582,0.09709487,-0.07453939,324.6554,165.6995,196.3578,,144.6554,-14.3005,16.3578,,-14.18585721,2.458668736,-5.701528825,,0.607942942,0.502736207,-0.124530218,0.798652672,,1.269101869,0.626762068,-0.097054787,1.418756454,,,,,,,,,,,,,,,,,,,,,,,,,,,,,,,
2.930593,1.895094,1.782896,-2.214401,0.3149953,-0.9411726,0.09705895,-0.07450961,324.6573,165.7058,196.351,,144.6573,-14.2942,16.351,,-14.18775721,2.464968736,-5.708328825,,0.632983751,0.724271213,-0.59332958,1.130166894,,1.217751187,0.762766838,-0.272209262,1.462473618,,,,,,,,,,,,,,,,,,,,,,,,,,,,,,,
2.953157,1.895774,1.783155,-2.214162,0.3147678,-0.941258,0.09703983,-0.07441745,324.6821,165.726,196.3377,,144.6821,-14.274,16.3377,,-14.21255721,2.485168736,-5.721628825,,1.329002785,0.690913711,-0.700213982,1.653453894,,1.250255399,0.537814272,-0.160854839,1.370495178,,,,,,,,,,,,,,,,,,,,,,,,,,,,,,,
2.975352,1.896083,1.783169,-2.214514,0.3144656,-0.9413652,0.09696963,-0.07443006,324.7167,165.7368,196.3197,,144.7167,-14.2632,16.3197,,-14.24715721,2.495968736,-5.739628825,,1.654026336,0.783862336,-0.858164396,2.021556186,,1.331807495,0.06639133,0.206489341,1.349354238,,,,,,,,,,,,,,,,,,,,,,,,,,,,,,,
2.986729,1.89614,1.78311,-2.214809,0.3142872,-0.9414305,0.09694673,-0.07438721,324.7366,165.7491,196.3094,,144.7366,-14.2509,16.3094,,-14.26705721,2.508268736,-5.749928825,,1.174924861,-0.029223689,0.342385341,1.22414467,,1.368506054,-0.189904396,0.378425304,1.432507664,,,,,,,,,,,,,,,,,,,,,,,,,,,,,,,
2.998049,1.896881,1.78332,-2.214205,0.3142549,-0.9414235,0.09706832,-0.07445399,324.7434,165.7362,196.3274,,144.7434,-14.2638,16.3274,,-14.27385721,2.495368736,-5.731928825,,1.410402945,-1.277217129,1.525229065,2.438615132,,1.357594015,0.090615197,0.092825398,1.36377754,,,,,,,,,,,,,,,,,,,,,,,,,,,,,,,
3.02003,1.89747,1.783404,-2.214114,0.3139055,-0.9414956,0.097315,-0.07469396,324.7922,165.7051,196.3595,,144.7922,-14.2949,16.3595,,-14.32265721,2.464268736,-5.699828825,,1.618943981,-0.119723672,0.354134629,1.66154287,,1.39342445,0.461279737,-0.20564732,1.482127361,,,,,,,,,,,,,,,,,,,,,,,,,,,,,,,
3.042235,1.897536,1.783333,-2.21468,0.3136885,-0.9415821,0.09728077,-0.07455948,324.8148,165.7312,196.3428,,144.8148,-14.2688,16.3428,,-14.34525721,2.490368736,-5.716528825,,1.302152931,0.659370573,-0.558911002,1.562931002,,1.564818445,0.370366588,-0.034644107,1.608424194,,,,,,,,,,,,,,,,,,,,,,,,,,,,,,,
3.062468,1.897737,1.783379,-2.215083,0.3134206,-0.9416686,0.09727288,-0.07460394,324.8469,165.7341,196.3354,,144.8469,-14.2659,16.3354,,-14.37735721,2.493268736,-5.723928825,,1.646330505,-1.359953013,1.042286978,2.37618149,,1.758798328,0.022060078,0.386982573,1.801003531,,,,,,,,,,,,,,,,,,,,,,,,,,,,,,,
3.084506,1.898284,1.783512,-2.215182,0.3132041,-0.9416732,0.09759681,-0.07503136,324.8845,165.671,196.3894,,144.8845,-14.329,16.3894,,-14.41495721,2.430168736,-5.669928825,,1.843953151,-3.280209663,3.209176049,4.945578791,,1.809553967,-0.018530668,0.452030039,1.86525068,,,,,,,,,,,,,,,,,,,,,,,,,,,,,,,
3.106658,1.898767,1.783613,-2.215321,0.312975,-0.9416513,0.09815668,-0.07553046,324.9284,165.5891,196.4773,,144.9284,-14.4109,16.4773,,-14.45885721,2.348268736,-5.582028825,,1.726543736,-1.147092893,1.084370251,2.339366201,,1.774176394,0.153652646,0.278222697,1.802420284,,,,,,,,,,,,,,,,,,,,,,,,,,,,,,,
3.128611,1.899245,1.783785,-2.215342,0.3126606,-0.9417838,0.09796163,-0.07543323,324.9607,165.6199,196.4378,,144.9607,-14.3801,16.4378,,-14.49115721,2.379068736,-5.621528825,,1.435200721,4.561409912,-3.835898458,6.130283719,,1.840440109,0.12156982,0.270709692,1.864211027,,,,,,,,,,,,,,,,,,,,,,,,,,,,,,,
3.150697,1.899834,1.783966,-2.215225,0.3121794,-0.942081,0.09740332,-0.07443217,324.9916,165.7904,196.3081,,144.9916,-14.2096,16.3081,,-14.52205721,2.549568736,-5.751228825,,1.732109202,5.287492684,-3.559949831,6.605378412,,1.977191422,-0.115045842,0.395225596,2.019585289,,,,,,,,,,,,,,,,,,,,,,,,,,,,,,,
3.172342,1.900228,1.783977,-2.215394,0.3117459,-0.9422526,0.09741157,-0.07406389,325.0363,165.8522,196.2811,,145.0363,-14.1478,16.2811,,-14.56675721,2.611368736,-5.778228825,,2.836064878,-0.67913472,2.098511541,3.592803731,,2.022294379,-0.334693428,0.569532617,2.127454265,,,,,,,,,,,,,,,,,,,,,,,,,,,,,,,
3.194438,1.900758,1.78408,-2.215405,0.3112556,-0.9422828,0.09825894,-0.07462101,325.116,165.7591,196.4014,,145.116,-14.2409,16.4014,,-14.64645721,2.518268736,-5.657928825,,3.154722234,-3.803713418,4.887817261,6.950630598,,2.005922254,-0.478616175,0.744677367,2.192565145,,,,,,,,,,,,,,,,,,,,,,,,,,,,,,,
3.216418,1.901344,1.784159,-2.215297,0.3108989,-0.9422958,0.09892178,-0.0750661,325.1754,165.6845,196.4966,,145.1754,-14.3155,16.4966,,-14.70585721,2.443668736,-5.562728825,,1.988826086,0.163234002,0.145403075,2.000803987,,1.925854244,-0.663748528,0.882572346,2.220002393,,,,,,,,,,,,,,,,,,,,,,,,,,,,,,,
3.238297,1.901419,1.783959,-2.215656,0.3105439,-0.9424927,0.09845392,-0.07467851,325.2033,165.7659,196.4082,,145.2033,-14.2341,16.4082,,-14.73375721,2.525068736,-5.651128825,,1.194117887,3.02224543,-3.117659836,4.503297438,,1.777029356,-0.634186562,0.794828805,2.047383393,,,,,,,,,,,,,,,,,,,,,,,,,,,,,,,
3.260758,1.901673,1.783887,-2.215862,0.310264,-0.9426292,0.09822512,-0.07441925,325.2283,165.8181,196.3589,,145.2283,-14.1819,16.3589,,-14.75875721,2.577268736,-5.700428825,,2.036353164,-0.446300439,0.244716277,2.099000798,,1.649809797,-0.381875113,0.591708739,1.793828364,,,,,,,,,,,,,,,,,,,,,,,,,,,,,,,
3.282551,1.901952,1.783814,-2.216089,0.3098378,-0.9426888,0.09860637,-0.07493448,325.2928,165.748,196.4174,,145.2928,-14.252,16.4174,,-14.82325721,2.507168736,-5.641928825,,3.188170015,-4.353220727,3.143935815,6.244941245,,1.547797653,-0.427454565,0.655260442,1.734289833,,,,,,,,,,,,,,,,,,,,,,,,,,,,,,,
3.29379,1.902325,1.783814,-2.215899,0.3096047,-0.942706,0.0988257,-0.07539065,325.3312,165.6863,196.4579,,145.3312,-14.3137,16.4579,,-14.86165721,2.445468736,-5.601428825,,2.205282422,-2.975142293,2.620125906,4.536496665,,1.452487993,-0.645979819,0.867650907,1.811029927,,,,,,,,,,,,,,,,,,,,,,,,,,,,,,,
3.315724,1.902524,1.78365,-2.216121,0.3094599,-0.9427208,0.09912433,-0.07540913,325.353,165.6762,196.4938,,145.353,-14.3238,16.4938,,-14.88345721,2.435368736,-5.565528825,,1.089315303,-1.211625138,1.717970744,2.367713408,,1.312081972,-0.599625863,0.858463562,1.678710804,,,,,,,,,,,,,,,,,,,,,,,,,,,,,,,
3.338345,1.903455,1.783886,-2.215472,0.309307,-0.9427207,0.09937671,-0.07570535,325.3798,165.6318,196.5345,,145.3798,-14.3682,16.5345,,-14.91025721,2.390968736,-5.524828825,,0.605446375,-3.766673606,2.834921703,4.753017613,,1.105732702,-0.338662127,0.616911648,1.310693262,,,,,,,,,,,,,,,,,,,,,,,,,,,,,,,
3.349816,1.903899,1.784023,-2.215172,0.3093901,-0.9426402,0.09956987,-0.0761116,325.3801,165.5679,196.5789,,145.3801,-14.4321,16.5789,,-14.91055721,2.327068736,-5.480428825,,-0.090770395,-2.8959041,2.068510013,3.559948524,,0.948064931,-0.205548935,0.539546494,1.110039593,,,,,,,,,,,,,,,,,,,,,,,,,,,,,,,
3.371964,1.903962,1.783923,-2.215316,0.3094354,-0.9426209,0.09959906,-0.07612902,325.3755,165.563,196.5848,,145.3755,-14.437,16.5848,,-14.90595721,2.322168736,-5.474528825,,0.072689464,2.13295595,-1.556190604,2.641309152,,0.858605432,-0.261940726,0.609909687,1.085267736,,,,,,,,,,,,,,,,,,,,,,,,,,,,,,,
3.394339,1.903888,1.783768,-2.215667,0.3092338,-0.942772,0.09925871,-0.07551921,325.3834,165.6634,196.5092,,145.3834,-14.3366,16.5092,,-14.91385721,2.422568736,-5.550128825,,0.109042851,3.96887703,-3.009726317,4.982201093,,0.785738048,-0.19302274,0.534660955,0.969796059,,,,,,,,,,,,,,,,,,,,,,,,,,,,,,,
3.406192,1.904343,1.783949,-2.215182,0.3091909,-0.9428221,0.09910997,-0.07526425,325.3818,165.7043,196.4779,,145.3818,-14.2957,16.4779,,-14.91225721,2.463468736,-5.581428825,,0.493083629,2.446664379,-0.798873781,2.620591034,,0.640152797,0.01646967,0.429733724,0.771192536,,,,,,,,,,,,,,,,,,,,,,,,,,,,,,,
3.417698,1.904439,1.783929,-2.215198,0.3090793,-0.9428537,0.09927109,-0.07511471,325.3947,165.7209,196.4899,,145.3947,-14.2791,16.4899,,-14.92515721,2.480068736,-5.569428825,,1.010786594,-0.076533283,1.979076047,2.223575697,,0.538641122,0.099472097,0.419226711,0.689768071,,,,,,,,,,,,,,,,,,,,,,,,,,,,,,,
3.440132,1.904512,1.783875,-2.215422,0.3089887,-0.9428219,0.09974124,-0.07526346,325.4149,165.6851,196.5553,,145.4149,-14.3149,16.5553,,-14.94535721,2.444268736,-5.504028825,,0.472181731,-0.411184854,1.747642384,1.856416568,,0.502321718,0.158608636,0.375075372,0.646657051,,,,,,,,,,,,,,,,,,,,,,,,,,,,,,,
3.462888,1.904583,1.78372,-2.215438,0.3089742,-0.9428242,0.09989849,-0.07508475,325.4159,165.7027,196.5685,,145.4159,-14.2973,16.5685,,-14.94635721,2.461868736,-5.490828825,,-0.06085494,1.893705491,-0.860343926,2.080868925,,0.465798441,0.441853178,0.20782422,0.674828367,,,,,,,,,,,,,,,,,,,,,,,,,,,,,,,
3.48462,1.90471,1.783629,-2.215407,0.3089139,-0.9429019,0.0996585,-0.07467541,325.4123,165.7682,196.5185,,145.4123,-14.2318,16.5185,,-14.94275721,2.527368736,-5.540828825,,0.031144407,2.289152156,-2.202938332,3.177125251,,0.479881851,0.56171424,0.1763515,0.759545476,,,,,,,,,,,,,,,,,,,,,,,,,,,,,,,
3.506994,1.904651,1.783526,-2.215496,0.3088111,-0.942978,0.09937221,-0.07452181,325.4174,165.8032,196.4714,,145.4174,-14.1968,16.4714,,-14.94785721,2.562368736,-5.587928825,,1.089077173,0.449633372,-0.733517241,1.387914551,,0.513340268,0.224280102,0.467317733,0.729524268,,,,,,,,,,,,,,,,,,,,,,,,,,,,,,,
3.518121,1.90475,1.783497,-2.215489,0.3086457,-0.943019,0.09944139,-0.07459585,325.4391,165.7958,196.4785,,145.4391,-14.2042,16.4785,,-14.96955721,2.554968736,-5.580828825,,1.295561752,-1.629819398,1.779881816,2.739118617,,0.565162639,-0.282591798,0.901588539,1.100967223,,,,,,,,,,,,,,,,,,,,,,,,,,,,,,,
3.540745,1.904911,1.783411,-2.215525,0.3086221,-0.9429579,0.09984732,-0.07492304,325.4536,165.7371,196.5446,,145.4536,-14.2629,16.5446,,-14.98405721,2.496268736,-5.514728825,,0.885630639,-1.896110733,2.483534738,3.247694926,,0.5753198,-0.658280488,1.157453841,1.450525928,,,,,,,,,,,,,,,,,,,,,,,,,,,,,,,
3.563039,1.905545,1.783514,-2.215115,0.3084705,-0.9429609,0.1001853,-0.07505766,325.4788,165.7104,196.5902,,145.4788,-14.2896,16.5902,,-15.00925721,2.469568736,-5.469128825,,0.617163049,-0.442850137,1.144003336,1.373226167,,0.534005697,-0.761334592,1.142463749,1.473097371,,,,,,,,,,,,,,,,,,,,,,,,,,,,,,,
3.57458,1.905598,1.783385,-2.215193,0.3084591,-0.9429637,0.1002196,-0.07502281,325.48,165.714,196.593,,145.48,-14.286,16.593,,-15.01045721,2.473168736,-5.466328825,,0.130643783,-0.084494558,0.660656729,0.678730021,,0.523838942,-0.737457739,1.061470399,1.394622014,,,,,,,,,,,,,,,,,,,,,,,,,,,,,,,
3.596829,1.905967,1.78332,-2.21502,0.3084556,-0.9429442,0.1003938,-0.07505082,325.4835,165.7033,196.617,,145.4835,-14.2967,16.617,,-15.01395721,2.462468736,-5.442328825,,0.092313935,-1.337710291,1.659364652,2.133420196,,0.559379207,-0.805342948,1.118036089,1.487106942,,,,,,,,,,,,,,,,,,,,,,,,,,,,,,,
3.618793,1.906482,1.783403,-2.214632,0.308525,-0.9428708,0.1006697,-0.0753163,325.4841,165.6551,196.6662,,145.4841,-14.3449,16.6662,,-15.01455721,2.414268736,-5.393128825,,0.50764888,-2.253687853,2.226370424,3.208354966,,0.599296519,-0.918302036,1.320980754,1.716806657,,,,,,,,,,,,,,,,,,,,,,,,,,,,,,,
3.640757,1.906949,1.78337,-2.21435,0.3084258,-0.9428463,0.1009627,-0.07563672,325.5058,165.6043,196.7148,,145.5058,-14.3957,16.7148,,-15.03625721,2.363468736,-5.344528825,,0.78273368,-2.620457658,2.635794159,3.79827345,,0.586698328,-0.985353644,1.476799519,1.869779012,,,,,,,,,,,,,,,,,,,,,,,,,,,,,,,
3.662922,1.907961,1.783658,-2.213441,0.3084233,-0.9427742,0.1013642,-0.07600747,325.5186,165.5394,196.7826,,145.5186,-14.4606,16.7826,,-15.04905721,2.298568736,-5.276728825,,0.625126722,-2.437288599,2.527375153,3.566340463,,0.537526482,-0.836145298,1.397216446,1.714726647,,,,,,,,,,,,,,,,,,,,,,,,,,,,,,,
3.685218,1.908336,1.783731,-2.213367,0.30837,-0.9427415,0.1016343,-0.07626816,325.5336,165.496,196.8271,,145.5336,-14.504,16.8271,,-15.06405721,2.255168736,-5.232228825,,0.473703252,-1.416236633,1.784204845,2.32669463,,0.490885063,-0.558465496,1.188738548,1.402123814,,,,,,,,,,,,,,,,,,,,,,,,,,,,,,,
3.707793,1.908545,1.783667,-2.213429,0.3083603,-0.9427117,0.1018818,-0.07634588,325.5398,165.476,196.8626,,145.5398,-14.524,16.8626,,-15.07025721,2.235168736,-5.196728825,,0.340013911,-0.100785765,0.69472883,0.780009857,,0.431466178,-0.497573089,1.160742522,1.334565564,,,,,,,,,,,,,,,,,,,,,,,,,,,,,,,
3.730734,1.908769,1.783675,-2.213367,0.308268,-0.942748,0.1019025,-0.07624306,325.5491,165.4917,196.8584,,145.5491,-14.5083,16.8584,,-15.07955721,2.250868736,-5.200928825,,0.401168511,1.011197774,-0.124989948,1.095024931,,0.405317712,-0.660502942,1.337303226,1.54561525,,,,,,,,,,,,,,,,,,,,,,,,,,,,,,,
3.753155,1.909326,1.78382,-2.212937,0.308168,-0.9427904,0.1019841,-0.07601316,325.558,165.5217,196.8569,,145.558,-14.4783,16.8569,,-15.08845721,2.280868736,-5.202428825,,0.55006946,0.820684007,0.435342305,1.079639557,,0.387278373,-0.762281222,1.377375631,1.621178839,,,,,,,,,,,,,,,,,,,,,,,,,,,,,,,
3.774913,1.909786,1.783969,-2.212571,0.3080515,-0.942813,0.1021905,-0.07592823,325.5733,165.5283,196.8773,,145.5733,-14.4717,16.8773,,-15.10375721,2.287468736,-5.182028825,,0.925300693,-0.422037525,1.292126713,1.644350476,,0.346042473,-0.532438469,1.119795183,1.287314013,,,,,,,,,,,,,,,,,,,,,,,,,,,,,,,
3.78633,1.90981,1.783906,-2.212568,0.3079694,-0.9428186,0.102329,-0.07600502,325.5864,165.5152,196.8961,,145.5864,-14.4848,16.8961,,-15.11685721,2.274368736,-5.163228825,,0.656327744,0.309889092,0.745301862,1.040323134,,0.331103685,-0.000351399,0.658900228,0.737413916,,,,,,,,,,,,,,,,,,,,,,,,,,,,,,,
3.808116,1.910014,1.783954,-2.21252,0.3079033,-0.9428557,0.1024093,-0.07570338,325.59,165.5537,196.8927,,145.59,-14.4463,16.8927,,-15.12045721,2.312868736,-5.166628825,,0.279292193,1.713726693,-0.22667794,1.751070014,,0.355186056,0.320820198,0.402283018,0.625231446,,,,,,,,,,,,,,,,,,,,,,,,,,,,,,,
3.82998,1.910348,1.783981,-2.21232,0.3077964,-0.942906,0.1024655,-0.07543511,325.5986,165.59,196.8862,,145.5986,-14.41,16.8862,,-15.12905721,2.349168736,-5.173128825,,-0.155282445,0.34875116,0.780055004,0.868461755,,0.471150144,0.064049181,0.639765036,0.797109815,,,,,,,,,,,,,,,,,,,,,,,,,,,,,,,
3.852,1.9105,1.784039,-2.212217,0.3079684,-0.9428186,0.1027232,-0.07547549,325.5831,165.5688,196.9271,,145.5831,-14.4312,16.9271,,-15.11355721,2.327968736,-5.132228825,,-0.209286288,-2.202582643,2.955945877,3.692260429,,0.595567065,-0.389863124,0.989506851,1.218941013,,,,,,,,,,,,,,,,,,,,,,,,,,,,,,,
3.873729,1.910712,1.784123,-2.212056,0.3080438,-0.9427046,0.1032559,-0.07586412,325.5893,165.494,197.0152,,145.5893,-14.506,17.0152,,-15.11975721,2.253168736,-5.044128825,,-0.142197463,-2.660827931,2.180305921,3.442957929,,0.661866794,-0.633364995,1.097195071,1.429355062,,,,,,,,,,,,,,,,,,,,,,,,,,,,,,,
3.885489,1.911202,1.784328,-2.211595,0.3081203,-0.9426709,0.1032161,-0.07602609,325.5826,165.4719,197.0188,,145.5826,-14.5281,17.0188,,-15.11305721,2.231068736,-5.040528825,,-0.028417823,0.734267934,-1.122175405,1.341355513,,0.777718106,-0.561734594,0.830288572,1.268767244,,,,,,,,,,,,,,,,,,,,,,,,,,,,,,,
3.906936,1.911168,1.784249,-2.211725,0.3079297,-0.9427939,0.102975,-0.0755989,325.5936,165.5437,196.9641,,145.5936,-14.4563,16.9641,,-15.12405721,2.302868736,-5.095228825,,0.588529438,4.296674248,-3.355840253,5.483560914,,0.819386538,-0.244829427,0.318324417,0.912505442,,,,,,,,,,,,,,,,,,,,,,,,,,,,,,,
