Time,X,Y,Z,wquat,xquat,yquat,zquat,xrot,yrot,zrot,,,,,,-146.1293366,-0.17509103,180,,v_roll,v_pitch,v_yaw,V,,vxavg,vyavg,vzavg,avg speed,,Phase,GFO,Movement,,,,,,,,,,,,,,,,,,,,,,,,,,,
0,1.5,0,-1.64,0,0,1,0,0,180,0,,-180,0,-180,,33.87066342,0.17509103,0,,,,,30,,,,,,,,,,,,,,,,,,,,,,,,,,,,,,,,,,,,
0,1.5,0,-1.64,0,0,1,0,0,180,0,,-180,0,-180,,33.87066342,0.17509103,0,,#DIV/0!,#DIV/0!,#DIV/0!,#DIV/0!,,,,,,,,,,,,,,,,,,,,,,,,,,,,,,,,,,,,
0.02,1.5,0,-1.64,0,0,1,0,0,180,0,,-180,0,-180,,33.87066342,0.17509103,0,,0,0,0,0,,,,,,,,,,,,,,,,,,,,,,,,,,,,,,,,,,,,
0.0579547,1.5,0,-1.64,0,0,1,0,0,180,0,,-180,0,-180,,33.87066342,0.17509103,0,,0,0,0,0,,,,,,,,,,,,,,,,,,,,,,,,,,,,,,,,,,,,
0.0773231,1.5,0,-1.64,0,0,1,0,0,180,0,,-180,0,-180,,33.87066342,0.17509103,0,,0,0,0,0,,,,,,,,,,,,,,,,,,,,,,,,,,,,,,,,,,,,
0.0966286,1.5,0,-1.64,0,0,1,0,0,180,0,,-180,0,-180,,33.87066342,0.17509103,0,,0,0,0,0,,#DIV/0!,#DIV/0!,#DIV/0!,#DIV/0!,,,,,,,,,,,,,,,,,,,,,,,,,,,,,,,
0.1144135,1.5,0,-1.64,0,0,1,0,0,180,0,,-180,0,-180,,33.87066342,0.17509103,0,,0,0,0,0,,#DIV/0!,#DIV/0!,#DIV/0!,#DIV/0!,,,,,,,,,,,,,,,,,,,,,,,,,,,,,,,
0.1329892,1.5,0,-1.64,0,0,1,0,0,180,0,,-180,0,-180,,33.87066342,0.17509103,0,,0,0,0,0,,#DIV/0!,#DIV/0!,#DIV/0!,#DIV/0!,,,,,,,,,,,,,,,,,,,,,,,,,,,,,,,
0.1512028,1.5,0,-1.64,0,0,1,0,0,180,0,,-180,0,-180,,33.87066342,0.17509103,0,,0,0,0,0,,0,0,0,0,,,,,,,,,,,,,,,,,,,,,,,,,,,,,,,
0.1668517,1.5,0,-1.64,0,0,1,0,0,180,0,,-180,0,-180,,33.87066342,0.17509103,0,,0,0,0,0,,0,0,0,0,,,,,,,,,,,,,,,,,,,,,,,,,,,,,,,
0.183851,1.5,0,-1.64,0,0,1,0,0,180,0,,-180,0,-180,,33.87066342,0.17509103,0,,0,0,0,0,,0,0,0,0,,,,,,,,,,,,,,,,,,,,,,,,,,,,,,,
0.2042373,1.5,0,-1.64,0,0,1,0,0,180,0,,-180,0,-180,,33.87066342,0.17509103,0,,0,0,0,0,,0,0,0,0,,,,,,,,,,,,,,,,,,,,,,,,,,,,,,,
0.2158529,1.5,0,-1.64,0,0,1,0,0,180,0,,-180,0,-180,,33.87066342,0.17509103,0,,0,0,0,0,,0,0,0,0,,,,,,,,,,,,,,,,,,,,,,,,,,,,,,,
0.2372459,1.5,0,-1.64,0,0,1,0,0,180,0,,-180,0,-180,,33.87066342,0.17509103,0,,0,0,0,0,,0,0,0,0,,,,,,,,,,,,,,,,,,,,,,,,,,,,,,,
0.2597247,1.5,0,-1.64,0,0,1,0,0,180,0,,-180,0,-180,,33.87066342,0.17509103,0,,0,0,0,0,,0,0,0,0,,,,,,,,,,,,,,,,,,,,,,,,,,,,,,,
0.2816946,1.5,0,-1.64,0,0,1,0,0,180,0,,-180,0,-180,,33.87066342,0.17509103,0,,0,0,0,0,,0,0,0,0,,,,,,,,,,,,,,,,,,,,,,,,,,,,,,,
0.3040119,1.5,0,-1.64,0,0,1,0,0,180,0,,-180,0,-180,,33.87066342,0.17509103,0,,0,0,0,0,,0,0,0,0,,,,,,,,,,,,,,,,,,,,,,,,,,,,,,,
0.3258885,1.5,0,-1.64,0,0,1,0,0,180,0,,-180,0,-180,,33.87066342,0.17509103,0,,0,0,0,0,,0,0,0,0,,,,,,,,,,,,,,,,,,,,,,,,,,,,,,,
0.3483915,1.5,0,-1.64,0,0,1,0,0,180,0,,-180,0,-180,,33.87066342,0.17509103,0,,0,0,0,0,,0,0,0,0,,,,,,,,,,,,,,,,,,,,,,,,,,,,,,,
0.3713031,1.5,0,-1.64,0,0,1,0,0,180,0,,-180,0,-180,,33.87066342,0.17509103,0,,0,0,0,0,,0,0,0,0,,,,,,,,,,,,,,,,,,,,,,,,,,,,,,,
0.3920916,1.5,0,-1.64,0,0,1,0,0,180,0,,-180,0,-180,,33.87066342,0.17509103,0,,0,0,0,0,,0,0,0,0,,,,,,,,,,,,,,,,,,,,,,,,,,,,,,,
0.4146498,1.5,0,-1.64,0,0,1,0,0,180,0,,-180,0,-180,,33.87066342,0.17509103,0,,0,0,0,0,,0,0,0,0,,,,,,,,,,,,,,,,,,,,,,,,,,,,,,,
0.4367503,1.5,0,-1.64,0,0,1,0,0,180,0,,-180,0,-180,,33.87066342,0.17509103,0,,0,0,0,0,,0,0,0,0,,,,,,,,,,,,,,,,,,,,,,,,,,,,,,,
0.4483057,1.5,0,-1.64,0,0,1,0,0,180,0,,-180,0,-180,,33.87066342,0.17509103,0,,0,0,0,0,,0,0,0,0,,,,,,,,,,,,,,,,,,,,,,,,,,,,,,,
0.459635,1.5,0,-1.64,0,0,1,0,0,180,0,,-180,0,-180,,33.87066342,0.17509103,0,,0,0,0,0,,0,0,0,0,,,,,,,,,,,,,,,,,,,,,,,,,,,,,,,
0.481527,1.5,0,-1.64,0,0,1,0,0,180,0,,-180,0,-180,,33.87066342,0.17509103,0,,0,0,0,0,,0,0,0,0,,,,,,,,,,,,,,,,,,,,,,,,,,,,,,,
0.4928232,1.5,0,-1.64,0,0,1,0,0,180,0,,-180,0,-180,,33.87066342,0.17509103,0,,0,0,0,0,,0,0,0,0,,,,,,,,,,,,,,,,,,,,,,,,,,,,,,,
0.5143935,1.5,0,-1.64,0,0,1,0,0,180,0,,-180,0,-180,,33.87066342,0.17509103,0,,0,0,0,0,,0,0,0,0,,,,,,,,,,,,,,,,,,,,,,,,,,,,,,,
0.5257664,1.5,0,-1.64,0,0,1,0,0,180,0,,-180,0,-180,,33.87066342,0.17509103,0,,0,0,0,0,,0,0,0,0,,,,,,,,,,,,,,,,,,,,,,,,,,,,,,,
0.5491182,1.5,0,-1.64,0,0,1,0,0,180,0,,-180,0,-180,,33.87066342,0.17509103,0,,0,0,0,0,,0,0,0,0,,,,,,,,,,,,,,,,,,,,,,,,,,,,,,,
0.5707416,1.5,0,-1.64,0,0,1,0,0,180,0,,-180,0,-180,,33.87066342,0.17509103,0,,0,0,0,0,,0,0,0,0,,,,,,,,,,,,,,,,,,,,,,,,,,,,,,,
0.5923185,1.5,0,-1.64,0,0,1,0,0,180,0,,-180,0,-180,,33.87066342,0.17509103,0,,0,0,0,0,,0,0,0,0,,,,,,,,,,,,,,,,,,,,,,,,,,,,,,, 
0.6037599,1.5,0,-1.64,0,0,1,0,0,180,0,,-180,0,-180,,33.87066342,0.17509103,0,,0,0,0,0,,0,0,0,0,,,,,,,,,,,,,,,,,,,,,,,,,,,,,,,
0.6265546,1.5,0,-1.64,0,0,1,0,0,180,0,,-180,0,-180,,33.87066342,0.17509103,0,,0,0,0,0,,0,0,0,0,,,,,,,,,,,,,,,,,,,,,,,,,,,,,,,
0.6486422,1.5,0,-1.64,0,0,1,0,0,180,0,,-180,0,-180,,33.87066342,0.17509103,0,,0,0,0,0,,0,0,0,0,,,,,,,,,,,,,,,,,,,,,,,,,,,,,,,
0.6708717,1.5,0,-1.64,0,0,1,0,0,180,0,,-180,0,-180,,33.87066342,0.17509103,0,,0,0,0,0,,0,0,0,0,,,,,,,,,,,,,,,,,,,,,,,,,,,,,,,
0.6929517,1.5,0,-1.64,0,0,1,0,0,180,0,,-180,0,-180,,33.87066342,0.17509103,0,,0,0,0,0,,0,0,0,0,,,,,,,,,,,,,,,,,,,,,,,,,,,,,,,
0.7154888,1.5,0,-1.64,0,0,1,0,0,180,0,,-180,0,-180,,33.87066342,0.17509103,0,,0,0,0,0,,0,0,0,0,,,,,,,,,,,,,,,,,,,,,,,,,,,,,,,
0.7268605,1.5,0,-1.64,0,0,1,0,0,180,0,,-180,0,-180,,33.87066342,0.17509103,0,,0,0,0,0,,0,0,0,0,,,,,,,,,,,,,,,,,,,,,,,,,,,,,,,
0.7413802,1.5,0,-1.64,0,0,1,0,0,180,0,,-180,0,-180,,33.87066342,0.17509103,0,,0,0,0,0,,0,0,0,0,,,,,,,,,,,,,,,,,,,,,,,,,,,,,,,
0.7643863,1.5,0,-1.64,0,0,1,0,0,180,0,,-180,0,-180,,33.87066342,0.17509103,0,,0,0,0,0,,0,0,0,0,,,,,,,,,,,,,,,,,,,,,,,,,,,,,,,
0.7764522,1.5,0,-1.64,0,0,1,0,0,180,0,,-180,0,-180,,33.87066342,0.17509103,0,,0,0,0,0,,0,0,0,0,,,,,,,,,,,,,,,,,,,,,,,,,,,,,,,
0.7981645,1.5,0,-1.64,0,0,1,0,0,180,0,,-180,0,-180,,33.87066342,0.17509103,0,,0,0,0,0,,0,0,0,0,,,,,,,,,,,,,,,,,,,,,,,,,,,,,,,
0.8094147,1.5,0,-1.64,0,0,1,0,0,180,0,,-180,0,-180,,33.87066342,0.17509103,0,,0,0,0,0,,0,0,0,0,,,,,,,,,,,,,,,,,,,,,,,,,,,,,,,
0.8311148,1.5,0,-1.64,0,0,1,0,0,180,0,,-180,0,-180,,33.87066342,0.17509103,0,,0,0,0,0,,0,0,0,0,,,,,,,,,,,,,,,,,,,,,,,,,,,,,,,
0.8422885,1.5,0,-1.64,0,0,1,0,0,180,0,,-180,0,-180,,33.87066342,0.17509103,0,,0,0,0,0,,0,0,0,0,,,,,,,,,,,,,,,,,,,,,,,,,,,,,,,
0.8534205,1.5,0,-1.64,0,0,1,0,0,180,0,,-180,0,-180,,33.87066342,0.17509103,0,,0,0,0,0,,0,0,0,0,,,,,,,,,,,,,,,,,,,,,,,,,,,,,,,
0.8750782,1.5,0,-1.64,0,0,1,0,0,180,0,,-180,0,-180,,33.87066342,0.17509103,0,,0,0,0,0,,0,0,0,0,,,,,,,,,,,,,,,,,,,,,,,,,,,,,,,
0.897345,1.5,0,-1.64,0,0,1,0,0,180,0,,-180,0,-180,,33.87066342,0.17509103,0,,0,0,0,0,,0,0,0,0,,,,,,,,,,,,,,,,,,,,,,,,,,,,,,,
0.9196382,1.5,0,-1.64,0,0,1,0,0,180,0,,-180,0,-180,,33.87066342,0.17509103,0,,0,0,0,0,,0,0,0,0,,,,,,,,,,,,,,,,,,,,,,,,,,,,,,,
0.9418542,1.5,0,-1.64,0,0,1,0,0,180,0,,-180,0,-180,,33.87066342,0.17509103,0,,0,0,0,0,,0,0,0,0,,,,,,,,,,,,,,,,,,,,,,,,,,,,,,,
0.9642097,1.5,0,-1.64,0,0,1,0,0,180,0,,-180,0,-180,,33.87066342,0.17509103,0,,0,0,0,0,,0,0,0,0,,,,,,,,,,,,,,,,,,,,,,,,,,,,,,,
0.9861609,1.5,0,-1.64,0,0,1,0,0,180,0,,-180,0,-180,,33.87066342,0.17509103,0,,0,0,0,0,,0,0,0,0,,,,,,,,,,,,,,,,,,,,,,,,,,,,,,,
0.9976977,1.5,0,-1.64,0,0,1,0,0,180,0,,-180,0,-180,,33.87066342,0.17509103,0,,0,0,0,0,,0,0,0,0,,,,,,,,,,,,,,,,,,,,,,,,,,,,,,,
1.020068,1.5,0,-1.64,0,0,1,0,0,180,0,,-180,0,-180,,33.87066342,0.17509103,0,,0,0,0,0,,0,0,0,0,,,,,,,,,,,,,,,,,,,,,,,,,,,,,,,
1.041639,1.5,0,-1.64,0,0,1,0,0,180,0,,-180,0,-180,,33.87066342,0.17509103,0,,0,0,0,0,,0,0,0,0,,,,,,,,,,,,,,,,,,,,,,,,,,,,,,,
1.063825,1.5,0,-1.64,0,0,1,0,0,180,0,,-180,0,-180,,33.87066342,0.17509103,0,,0,0,0,0,,0,0,0,0,,,,,,,,,,,,,,,,,,,,,,,,,,,,,,,
1.086608,1.5,0,-1.64,0,0,1,0,0,180,0,,-180,0,-180,,33.87066342,0.17509103,0,,0,0,0,0,,0,0,0,0,,,,,,,,,,,,,,,,,,,,,,,,,,,,,,,
1.108767,1.5,0,-1.64,0,0,1,0,0,180,0,,-180,0,-180,,33.87066342,0.17509103,0,,0,0,0,0,,0,0,0,0,,,,,,,,,,,,,,,,,,,,,,,,,,,,,,,
1.131101,1.5,0,-1.64,0,0,1,0,0,180,0,,-180,0,-180,,33.87066342,0.17509103,0,,0,0,0,0,,0,0,0,0,,,,,,,,,,,,,,,,,,,,,,,,,,,,,,,
1.153368,1.5,0,-1.64,0,0,1,0,0,180,0,,-180,0,-180,,33.87066342,0.17509103,0,,0,0,0,0,,0,0,0,0,,,,,,,,,,,,,,,,,,,,,,,,,,,,,,,
1.175828,1.5,0,-1.64,0,0,1,0,0,180,0,,-180,0,-180,,33.87066342,0.17509103,0,,0,0,0,0,,0,0,0,0,,,,,,,,,,,,,,,,,,,,,,,,,,,,,,,
1.198045,1.5,0,-1.64,0,0,1,0,0,180,0,,-180,0,-180,,33.87066342,0.17509103,0,,0,0,0,0,,0,0,0,0,,,,,,,,,,,,,,,,,,,,,,,,,,,,,,,
1.209328,1.5,0,-1.64,0,0,1,0,0,180,0,,-180,0,-180,,33.87066342,0.17509103,0,,0,0,0,0,,0,0,0,0,,,,,,,,,,,,,,,,,,,,,,,,,,,,,,,
1.231424,1.5,0,-1.64,0,0,1,0,0,180,0,,-180,0,-180,,33.87066342,0.17509103,0,,0,0,0,0,,0,0,0,0,,,,,,,,,,,,,,,,,,,,,,,,,,,,,,,
1.243314,1.5,0,-1.64,0,0,1,0,0,180,0,,-180,0,-180,,33.87066342,0.17509103,0,,0,0,0,0,,0,0,0,0,,,,,,,,,,,,,,,,,,,,,,,,,,,,,,,
1.26518,1.5,0,-1.64,0,0,1,0,0,180,0,,-180,0,-180,,33.87066342,0.17509103,0,,0,0,0,0,,0,0,0,0,,,,,,,,,,,,,,,,,,,,,,,,,,,,,,,
1.28735,1.5,0,-1.64,0,0,1,0,0,180,0,,-180,0,-180,,33.87066342,0.17509103,0,,0,0,0,0,,0,0,0,0,,,,,,,,,,,,,,,,,,,,,,,,,,,,,,,
1.298848,1.5,0,-1.64,0,0,1,0,0,180,0,,-180,0,-180,,33.87066342,0.17509103,0,,0,0,0,0,,0,0,0,0,,,,,,,,,,,,,,,,,,,,,,,,,,,,,,,
1.320968,1.5,0,-1.64,0,0,1,0,0,180,0,,-180,0,-180,,33.87066342,0.17509103,0,,0,0,0,0,,0,0,0,0,,,,,,,,,,,,,,,,,,,,,,,,,,,,,,,
1.332253,1.5,0,-1.64,0,0,1,0,0,180,0,,-180,0,-180,,33.87066342,0.17509103,0,,0,0,0,0,,0,0,0,0,,,,,,,,,,,,,,,,,,,,,,,,,,,,,,,
1.343538,1.5,0,-1.64,0,0,1,0,0,180,0,,-180,0,-180,,33.87066342,0.17509103,0,,0,0,0,0,,0,0,0,0,,,,,,,,,,,,,,,,,,,,,,,,,,,,,,,
1.365399,1.5,0,-1.64,0,0,1,0,0,180,0,,-180,0,-180,,33.87066342,0.17509103,0,,0,0,0,0,,0,0,0,0,,,,,,,,,,,,,,,,,,,,,,,,,,,,,,,
1.376408,1.5,0,-1.64,0,0,1,0,0,180,0,,-180,0,-180,,33.87066342,0.17509103,0,,0,0,0,0,,0,0,0,0,,,,,,,,,,,,,,,,,,,,,,,,,,,,,,,
1.398471,1.5,0,-1.64,0,0,1,0,0,180,0,,-180,0,-180,,33.87066342,0.17509103,0,,0,0,0,0,,0,0,0,0,,,,,,,,,,,,,,,,,,,,,,,,,,,,,,,
1.420493,1.5,0,-1.64,0,0,1,0,0,180,0,,-180,0,-180,,33.87066342,0.17509103,0,,0,0,0,0,,0,0,0,0,,,,,,,,,,,,,,,,,,,,,,,,,,,,,,,
1.44279,1.5,0,-1.64,0,0,1,0,0,180,0,,-180,0,-180,,33.87066342,0.17509103,0,,0,0,0,0,,0,0,0,0,,,,,,,,,,,,,,,,,,,,,,,,,,,,,,,
1.46469,1.5,0,-1.64,0,0,1,0,0,180,0,,-180,0,-180,,33.87066342,0.17509103,0,,0,0,0,0,,0,0,0,0,,,,,,,,,,,,,,,,,,,,,,,,,,,,,,,
1.486997,1.5,0,-1.64,0,0,1,0,0,180,0,,-180,0,-180,,33.87066342,0.17509103,0,,0,0,0,0,,0,0,0,0,,,,,,,,,,,,,,,,,,,,,,,,,,,,,,,
1.50893,1.5,0,-1.64,0,0,1,0,0,180,0,,-180,0,-180,,33.87066342,0.17509103,0,,0,0,0,0,,0,0,0,0,,,,,,,,,,,,,,,,,,,,,,,,,,,,,,,
1.520402,1.5,0,-1.64,0,0,1,0,0,180,0,,-180,0,-180,,33.87066342,0.17509103,0,,0,0,0,0,,0,0,0,0,,,,,,,,,,,,,,,,,,,,,,,,,,,,,,,
1.54241,1.5,0,-1.64,0,0,1,0,0,180,0,,-180,0,-180,,33.87066342,0.17509103,0,,0,0,0,0,,0,0,0,0,,,,,,,,,,,,,,,,,,,,,,,,,,,,,,,
1.55427,1.5,0,-1.64,0,0,1,0,0,180,0,,-180,0,-180,,33.87066342,0.17509103,0,,0,0,0,0,,0,0,0,0,,,,,,,,,,,,,,,,,,,,,,,,,,,,,,,
1.576199,1.5,0,-1.64,0,0,1,0,0,180,0,,-180,0,-180,,33.87066342,0.17509103,0,,0,0,0,0,,0,0,0,0,,,,,,,,,,,,,,,,,,,,,,,,,,,,,,,
1.598403,1.5,0,-1.64,0,0,1,0,0,180,0,,-180,0,-180,,33.87066342,0.17509103,0,,0,0,0,0,,0,0,0,0,,,,,,,,,,,,,,,,,,,,,,,,,,,,,,,
1.609964,1.5,0,-1.64,0,0,1,0,0,180,0,,-180,0,-180,,33.87066342,0.17509103,0,,0,0,0,0,,0,0,0,0,,,,,,,,,,,,,,,,,,,,,,,,,,,,,,,
1.632034,1.5,0,-1.64,0,0,1,0,0,180,0,,-180,0,-180,,33.87066342,0.17509103,0,,0,0,0,0,,0,0,0,0,,,,,,,,,,,,,,,,,,,,,,,,,,,,,,,
1.643349,1.5,0,-1.64,0,0,1,0,0,180,0,,-180,0,-180,,33.87066342,0.17509103,0,,0,0,0,0,,0,0,0,0,,,,,,,,,,,,,,,,,,,,,,,,,,,,,,,
1.665757,1.5,0,-1.64,0,0,1,0,0,180,0,,-180,0,-180,,33.87066342,0.17509103,0,,0,0,0,0,,0,0,0,0,,,,,,,,,,,,,,,,,,,,,,,,,,,,,,,
1.687741,1.5,0,-1.64,0,0,1,0,0,180,0,,-180,0,-180,,33.87066342,0.17509103,0,,0,0,0,0,,0,0,0,0,,,,,,,,,,,,,,,,,,,,,,,,,,,,,,,
1.709689,1.5,0,-1.64,0,0,1,0,0,180,0,,-180,0,-180,,33.87066342,0.17509103,0,,0,0,0,0,,0,0,0,0,,,,,,,,,,,,,,,,,,,,,,,,,,,,,,,
1.731556,1.5,0,-1.64,0,0,1,0,0,180,0,,-180,0,-180,,33.87066342,0.17509103,0,,0,0,0,0,,0,0,0,0,,,,,,,,,,,,,,,,,,,,,,,,,,,,,,,
1.742968,1.5,0,-1.64,0,0,1,0,0,180,0,,-180,0,-180,,33.87066342,0.17509103,0,,0,0,0,0,,0,0,0,0,,,,,,,,,,,,,,,,,,,,,,,,,,,,,,,
1.765146,1.5,0,-1.64,0,0,1,0,0,180,0,,-180,0,-180,,33.87066342,0.17509103,0,,0,0,0,0,,0,0,0,0,,,,,,,,,,,,,,,,,,,,,,,,,,,,,,,
1.776164,1.5,0,-1.64,0,0,1,0,0,180,0,,-180,0,-180,,33.87066342,0.17509103,0,,0,0,0,0,,0,0,0,0,,,,,,,,,,,,,,,,,,,,,,,,,,,,,,,
1.798413,1.5,0,-1.64,0,0,1,0,0,180,0,,-180,0,-180,,33.87066342,0.17509103,0,,0,0,0,0,,0,0,0,0,,,,,,,,,,,,,,,,,,,,,,,,,,,,,,,
1.820562,1.5,0,-1.64,0,0,1,0,0,180,0,,-180,0,-180,,33.87066342,0.17509103,0,,0,0,0,0,,0,0,0,0,,,,,,,,,,,,,,,,,,,,,,,,,,,,,,,
1.842381,1.5,0,-1.64,0,0,1,0,0,180,0,,-180,0,-180,,33.87066342,0.17509103,0,,0,0,0,0,,0,0,0,0,,,,,,,,,,,,,,,,,,,,,,,,,,,,,,,
1.864726,1.5,0,-1.64,0,0,1,0,0,180,0,,-180,0,-180,,33.87066342,0.17509103,0,,0,0,0,0,,0,0,0,0,,,,,,,,,,,,,,,,,,,,,,,,,,,,,,,
1.886533,1.5,0,-1.64,0,0,1,0,0,180,0,,-180,0,-180,,33.87066342,0.17509103,0,,0,0,0,0,,0,0,0,0,,,,,,,,,,,,,,,,,,,,,,,,,,,,,,,
1.908181,1.5,0,-1.64,0,0,1,0,0,180,0,,-180,0,-180,,33.87066342,0.17509103,0,,0,0,0,0,,0,0,0,0,,,,,,,,,,,,,,,,,,,,,,,,,,,,,,,
1.930757,1.5,0,-1.64,0,0,1,0,0,180,0,,-180,0,-180,,33.87066342,0.17509103,0,,0,0,0,0,,0,0,0,0,,,,,,,,,,,,,,,,,,,,,,,,,,,,,,,
1.952535,1.5,0,-1.64,0,0,1,0,0,180,0,,-180,0,-180,,33.87066342,0.17509103,0,,0,0,0,0,,0,0,0,0,,,,,,,,,,,,,,,,,,,,,,,,,,,,,,,
1.974571,1.5,0,-1.64,0,0,1,0,0,180,0,,-180,0,-180,,33.87066342,0.17509103,0,,0,0,0,0,,0,0,0,0,,,,,,,,,,,,,,,,,,,,,,,,,,,,,,,
1.996841,1.5,0,-1.64,0,0,1,0,0,180,0,,-180,0,-180,,33.87066342,0.17509103,0,,0,0,0,0,,0,0,0,0,,,,,,,,,,,,,,,,,,,,,,,,,,,,,,,
2.008178,1.5,0,-1.64,0,0,1,0,0,180,0,,-180,0,-180,,33.87066342,0.17509103,0,,0,0,0,0,,0,0,0,0,,,,,,,,,,,,,,,,,,,,,,,,,,,,,,,
2.030515,1.5,0,-1.64,0,0,1,0,0,180,0,,-180,0,-180,,33.87066342,0.17509103,0,,0,0,0,0,,0,0,0,0,,,,,,,,,,,,,,,,,,,,,,,,,,,,,,,
2.053056,1.5,0,-1.64,0,0,1,0,0,180,0,,-180,0,-180,,33.87066342,0.17509103,0,,0,0,0,0,,0,0,0,0,,,,,,,,,,,,,,,,,,,,,,,,,,,,,,,
2.06441,1.5,0,-1.64,0,0,1,0,0,180,0,,-180,0,-180,,33.87066342,0.17509103,0,,0,0,0,0,,0,0,0,0,,,,,,,,,,,,,,,,,,,,,,,,,,,,,,,
2.086521,1.5,0,-1.64,0,0,1,0,0,180,0,,-180,0,-180,,33.87066342,0.17509103,0,,0,0,0,0,,0,0,0,0,,,,,,,,,,,,,,,,,,,,,,,,,,,,,,,
2.108433,1.5,0,-1.64,0,0,1,0,0,180,0,,-180,0,-180,,33.87066342,0.17509103,0,,0,0,0,0,,0,0,0,0,,,,,,,,,,,,,,,,,,,,,,,,,,,,,,,
2.130506,1.5,0,-1.64,0,0,1,0,0,180,0,,-180,0,-180,,33.87066342,0.17509103,0,,0,0,0,0,,0,0,0,0,,,,,,,,,,,,,,,,,,,,,,,,,,,,,,,
2.152521,1.5,0,-1.64,0,0,1,0,0,180,0,,-180,0,-180,,33.87066342,0.17509103,0,,0,0,0,0,,0,0,0,0,,,,,,,,,,,,,,,,,,,,,,,,,,,,,,,
2.175059,1.5,0,-1.64,0,0,1,0,0,180,0,,-180,0,-180,,33.87066342,0.17509103,0,,0,0,0,0,,0,0,0,0,,,,,,,,,,,,,,,,,,,,,,,,,,,,,,,
2.197083,1.5,0,-1.64,0,0,1,0,0,180,0,,-180,0,-180,,33.87066342,0.17509103,0,,0,0,0,0,,0,0,0,0,,,,,,,,,,,,,,,,,,,,,,,,,,,,,,,
2.2192,1.5,0,-1.64,0,0,1,0,0,180,0,,-180,0,-180,,33.87066342,0.17509103,0,,0,0,0,0,,0,0,0,0,,,,,,,,,,,,,,,,,,,,,,,,,,,,,,,
2.241148,1.5,0,-1.64,0,0,1,0,0,180,0,,-180,0,-180,,33.87066342,0.17509103,0,,0,0,0,0,,0,0,0,0,,,,,,,,,,,,,,,,,,,,,,,,,,,,,,,
2.263652,1.5,0,-1.64,0,0,1,0,0,180,0,,-180,0,-180,,33.87066342,0.17509103,0,,0,0,0,0,,0,0,0,0,,,,,,,,,,,,,,,,,,,,,,,,,,,,,,,
2.285751,1.5,0,-1.64,0,0,1,0,0,180,0,,-180,0,-180,,33.87066342,0.17509103,0,,0,0,0,0,,0,0,0,0,,,,,,,,,,,,,,,,,,,,,,,,,,,,,,,
2.297037,1.5,0,-1.64,0,0,1,0,0,180,0,,-180,0,-180,,33.87066342,0.17509103,0,,0,0,0,0,,0,0,0,0,,,,,,,,,,,,,,,,,,,,,,,,,,,,,,,
2.319415,1.5,0,-1.64,0,0,1,0,0,180,0,,-180,0,-180,,33.87066342,0.17509103,0,,0,0,0,0,,0,0,0,0,,,,,,,,,,,,,,,,,,,,,,,,,,,,,,,
2.331092,1.5,0,-1.64,0,0,1,0,0,180,0,,-180,0,-180,,33.87066342,0.17509103,0,,0,0,0,0,,0,0,0,0,,,,,,,,,,,,,,,,,,,,,,,,,,,,,,,
2.352875,1.5,0,-1.64,0,0,1,0,0,180,0,,-180,0,-180,,33.87066342,0.17509103,0,,0,0,0,0,,0,0,0,0,,,,,,,,,,,,,,,,,,,,,,,,,,,,,,,
2.374546,1.5,0,-1.64,0,0,1,0,0,180,0,,-180,0,-180,,33.87066342,0.17509103,0,,0,0,0,0,,0,0,0,0,,,,,,,,,,,,,,,,,,,,,,,,,,,,,,,
2.397021,1.5,0,-1.64,0,0,1,0,0,180,0,,-180,0,-180,,33.87066342,0.17509103,0,,0,0,0,0,,0,0,0,0,,,,,,,,,,,,,,,,,,,,,,,,,,,,,,,
2.419123,1.5,0,-1.64,0,0,1,0,0,180,0,,-180,0,-180,,33.87066342,0.17509103,0,,0,0,0,0,,0,0,0,0,,,,,,,,,,,,,,,,,,,,,,,,,,,,,,,
2.441034,1.5,0,-1.64,0,0,1,0,0,180,0,,-180,0,-180,,33.87066342,0.17509103,0,,0,0,0,0,,0,0,0,0,,,,,,,,,,,,,,,,,,,,,,,,,,,,,,,
2.452738,1.5,0,-1.64,0,0,1,0,0,180,0,,-180,0,-180,,33.87066342,0.17509103,0,,0,0,0,0,,0,0,0,0,,,,,,,,,,,,,,,,,,,,,,,,,,,,,,,
2.474769,1.5,0,-1.64,0,0,1,0,0,180,0,,-180,0,-180,,33.87066342,0.17509103,0,,0,0,0,0,,0,0,0,0,,,,,,,,,,,,,,,,,,,,,,,,,,,,,,,
2.486248,1.5,0,-1.64,0,0,1,0,0,180,0,,-180,0,-180,,33.87066342,0.17509103,0,,0,0,0,0,,0,0,0,0,,,,,,,,,,,,,,,,,,,,,,,,,,,,,,,
2.508324,1.5,0,-1.64,0,0,1,0,0,180,0,,-180,0,-180,,33.87066342,0.17509103,0,,0,0,0,0,,0,0,0,0,,,,,,,,,,,,,,,,,,,,,,,,,,,,,,,
2.530857,1.5,0,-1.64,0,0,1,0,0,180,0,,-180,0,-180,,33.87066342,0.17509103,0,,0,0,0,0,,0,0,0,0,,,,,,,,,,,,,,,,,,,,,,,,,,,,,,,
2.541749,1.5,0,-1.64,0,0,1,0,0,180,0,,-180,0,-180,,33.87066342,0.17509103,0,,0,0,0,0,,0,0,0,0,,,,,,,,,,,,,,,,,,,,,,,,,,,,,,,
2.564044,1.5,0,-1.64,0,0,1,0,0,180,0,,-180,0,-180,,33.87066342,0.17509103,0,,0,0,0,0,,0,0,0,0,,,,,,,,,,,,,,,,,,,,,,,,,,,,,,,
2.575397,1.5,0,-1.64,0,0,1,0,0,180,0,,-180,0,-180,,33.87066342,0.17509103,0,,0,0,0,0,,0,0,0,0,,,,,,,,,,,,,,,,,,,,,,,,,,,,,,,
2.59774,1.5,0,-1.64,0,0,1,0,0,180,0,,-180,0,-180,,33.87066342,0.17509103,0,,0,0,0,0,,0,0,0,0,,,,,,,,,,,,,,,,,,,,,,,,,,,,,,,
2.619733,1.5,0,-1.64,0,0,1,0,0,180,0,,-180,0,-180,,33.87066342,0.17509103,0,,0,0,0,0,,0,0,0,0,,,,,,,,,,,,,,,,,,,,,,,,,,,,,,,
2.64203,1.5,0,-1.64,0,0,1,0,0,180,0,,-180,0,-180,,33.87066342,0.17509103,0,,0,0,0,0,,0,0,0,0,,,,,,,,,,,,,,,,,,,,,,,,,,,,,,,
2.664105,1.5,0,-1.64,0,0,1,0,0,180,0,,-180,0,-180,,33.87066342,0.17509103,0,,0,0,0,0,,0,0,0,0,,,,,,,,,,,,,,,,,,,,,,,,,,,,,,,
2.686667,1.5,0,-1.64,0,0,1,0,0,180,0,,-180,0,-180,,33.87066342,0.17509103,0,,0,0,0,0,,0,0,0,0,,,,,,,,,,,,,,,,,,,,,,,,,,,,,,,
2.708525,1.5,0,-1.64,0,0,1,0,0,180,0,,-180,0,-180,,33.87066342,0.17509103,0,,0,0,0,0,,0,0,0,0,,,,,,,,,,,,,,,,,,,,,,,,,,,,,,,
2.730817,1.5,0,-1.64,0,0,1,0,0,180,0,,-180,0,-180,,33.87066342,0.17509103,0,,0,0,0,0,,0,0,0,0,,,,,,,,,,,,,,,,,,,,,,,,,,,,,,,
2.752881,1.5,0,-1.64,0,0,1,0,0,180,0,,-180,0,-180,,33.87066342,0.17509103,0,,0,0,0,0,,0,0,0,0,,,,,,,,,,,,,,,,,,,,,,,,,,,,,,,
2.775212,1.5,0,-1.64,0,0,1,0,0,180,0,,-180,0,-180,,33.87066342,0.17509103,0,,0,0,0,0,,0,0,0,0,,,,,,,,,,,,,,,,,,,,,,,,,,,,,,,
2.786457,1.5,0,-1.64,0,0,1,0,0,180,0,,-180,0,-180,,33.87066342,0.17509103,0,,0,0,0,0,,0,0,0,0,,,,,,,,,,,,,,,,,,,,,,,,,,,,,,,
2.798381,1.5,0,-1.64,0,0,1,0,0,180,0,,-180,0,-180,,33.87066342,0.17509103,0,,0,0,0,0,,0,0,0,0,,,,,,,,,,,,,,,,,,,,,,,,,,,,,,,
2.820136,1.5,0,-1.64,0,0,1,0,0,180,0,,-180,0,-180,,33.87066342,0.17509103,0,,0,0,0,0,,0,0,0,0,,,,,,,,,,,,,,,,,,,,,,,,,,,,,,,
2.842634,1.5,0,-1.64,0,0,1,0,0,180,0,,-180,0,-180,,33.87066342,0.17509103,0,,0,0,0,0,,0,0,0,0,,,,,,,,,,,,,,,,,,,,,,,,,,,,,,,
2.864996,1.5,0,-1.64,0,0,1,0,0,180,0,,-180,0,-180,,33.87066342,0.17509103,0,,0,0,0,0,,0,0,0,0,,,,,,,,,,,,,,,,,,,,,,,,,,,,,,,
2.887093,1.5,0,-1.64,0,0,1,0,0,180,0,,-180,0,-180,,33.87066342,0.17509103,0,,0,0,0,0,,0,0,0,0,,,,,,,,,,,,,,,,,,,,,,,,,,,,,,,
2.908965,1.5,0,-1.64,0,0,1,0,0,180,0,,-180,0,-180,,33.87066342,0.17509103,0,,0,0,0,0,,0,0,0,0,,,,,,,,,,,,,,,,,,,,,,,,,,,,,,,
2.931011,1.5,0,-1.64,0,0,1,0,0,180,0,,-180,0,-180,,33.87066342,0.17509103,0,,0,0,0,0,,0,0,0,0,,,,,,,,,,,,,,,,,,,,,,,,,,,,,,,
2.953067,1.5,0,-1.64,0,0,1,0,0,180,0,,-180,0,-180,,33.87066342,0.17509103,0,,0,0,0,0,,0,0,0,0,,,,,,,,,,,,,,,,,,,,,,,,,,,,,,,
2.975453,1.5,0,-1.64,0,0,1,0,0,180,0,,-180,0,-180,,33.87066342,0.17509103,0,,0,0,0,0,,0,0,0,0,,,,,,,,,,,,,,,,,,,,,,,,,,,,,,,
2.997613,1.5,0,-1.64,0,0,1,0,0,180,0,,-180,0,-180,,33.87066342,0.17509103,0,,0,0,0,0,,0,0,0,0,,,,,,,,,,,,,,,,,,,,,,,,,,,,,,,
3.019311,1.5,0,-1.64,0,0,1,0,0,180,0,,-180,0,-180,,33.87066342,0.17509103,0,,0,0,0,0,,0,0,0,0,,,,,,,,,,,,,,,,,,,,,,,,,,,,,,,
3.034781,1.5,0,-1.64,0,0,1,0,0,180,0,,-180,0,-180,,33.87066342,0.17509103,0,,0,0,0,0,,0,0,0,0,,,,,,,,,,,,,,,,,,,,,,,,,,,,,,,
3.050159,1.5,0,-1.64,0,0,1,0,0,180,0,,-180,0,-180,,33.87066342,0.17509103,0,,0,0,0,0,,0,0,0,0,,,,,,,,,,,,,,,,,,,,,,,,,,,,,,,
3.069016,1.5,0,-1.64,0,0,1,0,0,180,0,,-180,0,-180,,33.87066342,0.17509103,0,,0,0,0,0,,0,0,0,0,,,,,,,,,,,,,,,,,,,,,,,,,,,,,,,
3.091312,1.5,0,-1.64,0,0,1,0,0,180,0,,-180,0,-180,,33.87066342,0.17509103,0,,0,0,0,0,,0,0,0,0,,,,,,,,,,,,,,,,,,,,,,,,,,,,,,,
3.113839,1.5,0,-1.64,0,0,1,0,0,180,0,,-180,0,-180,,33.87066342,0.17509103,0,,0,0,0,0,,0,0,0,0,,,,,,,,,,,,,,,,,,,,,,,,,,,,,,,
3.135538,1.5,0,-1.64,0,0,1,0,0,180,0,,-180,0,-180,,33.87066342,0.17509103,0,,0,0,0,0,,0,0,0,0,,,,,,,,,,,,,,,,,,,,,,,,,,,,,,,
3.157816,1.5,0,-1.64,0,0,1,0,0,180,0,,-180,0,-180,,33.87066342,0.17509103,0,,0,0,0,0,,0,0,0,0,,,,,,,,,,,,,,,,,,,,,,,,,,,,,,,
3.179891,1.5,0,-1.64,0,0,1,0,0,180,0,,-180,0,-180,,33.87066342,0.17509103,0,,0,0,0,0,,0,0,0,0,,,,,,,,,,,,,,,,,,,,,,,,,,,,,,,
3.201987,1.5,0,-1.64,0,0,1,0,0,180,0,,-180,0,-180,,33.87066342,0.17509103,0,,0,0,0,0,,0,0,0,0,,,,,,,,,,,,,,,,,,,,,,,,,,,,,,,
3.224123,1.5,0,-1.64,0,0,1,0,0,180,0,,-180,0,-180,,33.87066342,0.17509103,0,,0,0,0,0,,0,0,0,0,,,,,,,,,,,,,,,,,,,,,,,,,,,,,,,
3.247448,1.5,0,-1.64,0,0,1,0,0,180,0,,-180,0,-180,,33.87066342,0.17509103,0,,0,0,0,0,,0,0,0,0,,,,,,,,,,,,,,,,,,,,,,,,,,,,,,,
3.269323,1.5,0,-1.64,0,0,1,0,0,180,0,,-180,0,-180,,33.87066342,0.17509103,0,,0,0,0,0,,0,0,0,0,,,,,,,,,,,,,,,,,,,,,,,,,,,,,,,
3.291298,1.5,0,-1.64,0,0,1,0,0,180,0,,-180,0,-180,,33.87066342,0.17509103,0,,0,0,0,0,,0,0,0,0,,,,,,,,,,,,,,,,,,,,,,,,,,,,,,,
3.31406,1.5,0,-1.64,0,0,1,0,0,180,0,,-180,0,-180,,33.87066342,0.17509103,0,,0,0,0,0,,0,0,0,0,,,,,,,,,,,,,,,,,,,,,,,,,,,,,,,
3.335538,1.5,0,-1.64,0,0,1,0,0,180,0,,-180,0,-180,,33.87066342,0.17509103,0,,0,0,0,0,,0,0,0,0,,,,,,,,,,,,,,,,,,,,,,,,,,,,,,,
3.3469,1.5,0,-1.64,0,0,1,0,0,180,0,,-180,0,-180,,33.87066342,0.17509103,0,,0,0,0,0,,0,0,0,0,,,,,,,,,,,,,,,,,,,,,,,,,,,,,,,
3.368511,1.5,0,-1.64,0,0,1,0,0,180,0,,-180,0,-180,,33.87066342,0.17509103,0,,0,0,0,0,,0,0,0,0,,,,,,,,,,,,,,,,,,,,,,,,,,,,,,,
3.379807,1.5,0,-1.64,0,0,1,0,0,180,0,,-180,0,-180,,33.87066342,0.17509103,0,,0,0,0,0,,0,0,0,0,,,,,,,,,,,,,,,,,,,,,,,,,,,,,,,
3.401718,1.5,0,-1.64,0,0,1,0,0,180,0,,-180,0,-180,,33.87066342,0.17509103,0,,0,0,0,0,,0,0,0,0,,,,,,,,,,,,,,,,,,,,,,,,,,,,,,,
3.423584,1.5,0,-1.64,0,0,1,0,0,180,0,,-180,0,-180,,33.87066342,0.17509103,0,,0,0,0,0,,0,0,0,0,,,,,,,,,,,,,,,,,,,,,,,,,,,,,,,
3.4459,1.5,0,-1.64,0,0,1,0,0,180,0,,-180,0,-180,,33.87066342,0.17509103,0,,0,0,0,0,,0,0,0,0,,,,,,,,,,,,,,,,,,,,,,,,,,,,,,,
3.468391,1.5,0,-1.64,0,0,1,0,0,180,0,,-180,0,-180,,33.87066342,0.17509103,0,,0,0,0,0,,0,0,0,0,,,,,,,,,,,,,,,,,,,,,,,,,,,,,,,
3.479599,1.5,0,-1.64,0,0,1,0,0,180,0,,-180,0,-180,,33.87066342,0.17509103,0,,0,0,0,0,,0,0,0,0,,,,,,,,,,,,,,,,,,,,,,,,,,,,,,,
3.491054,1.5,0,-1.64,0,0,1,0,0,180,0,,-180,0,-180,,33.87066342,0.17509103,0,,0,0,0,0,,0,0,0,0,,,,,,,,,,,,,,,,,,,,,,,,,,,,,,,
3.502774,1.5,0,-1.64,0,0,1,0,0,180,0,,-180,0,-180,,33.87066342,0.17509103,0,,0,0,0,0,,0,0,0,0,,,,,,,,,,,,,,,,,,,,,,,,,,,,,,,
3.525471,1.5,0,-1.64,0,0,1,0,0,180,0,,-180,0,-180,,33.87066342,0.17509103,0,,0,0,0,0,,0,0,0,0,,,,,,,,,,,,,,,,,,,,,,,,,,,,,,,
3.549008,1.5,0,-1.64,0,0,1,0,0,180,0,,-180,0,-180,,33.87066342,0.17509103,0,,0,0,0,0,,0,0,0,0,,,,,,,,,,,,,,,,,,,,,,,,,,,,,,,
3.571441,1.5,0,-1.64,0,0,1,0,0,180,0,,-180,0,-180,,33.87066342,0.17509103,0,,0,0,0,0,,0,0,0,0,,,,,,,,,,,,,,,,,,,,,,,,,,,,,,,
3.583405,1.5,0,-1.64,0,0,1,0,0,180,0,,-180,0,-180,,33.87066342,0.17509103,0,,0,0,0,0,,0,0,0,0,,,,,,,,,,,,,,,,,,,,,,,,,,,,,,,
3.594967,1.5,0,-1.64,0,0,1,0,0,180,0,,-180,0,-180,,33.87066342,0.17509103,0,,0,0,0,0,,0,0,0,0,,,,,,,,,,,,,,,,,,,,,,,,,,,,,,,
3.617627,1.5,0,-1.64,0,0,1,0,0,180,0,,-180,0,-180,,33.87066342,0.17509103,0,,0,0,0,0,,0,0,0,0,,,,,,,,,,,,,,,,,,,,,,,,,,,,,,,
3.629018,1.5,0,-1.64,0,0,1,0,0,180,0,,-180,0,-180,,33.87066342,0.17509103,0,,0,0,0,0,,0,0,0,0,,,,,,,,,,,,,,,,,,,,,,,,,,,,,,,
3.640483,1.5,0,-1.64,0,0,1,0,0,180,0,,-180,0,-180,,33.87066342,0.17509103,0,,0,0,0,0,,0,0,0,0,,,,,,,,,,,,,,,,,,,,,,,,,,,,,,,
3.651861,1.5,0,-1.64,0,0,1,0,0,180,0,,-180,0,-180,,33.87066342,0.17509103,0,,0,0,0,0,,0,0,0,0,,,,,,,,,,,,,,,,,,,,,,,,,,,,,,,
3.674076,1.5,0,-1.64,0,0,1,0,0,180,0,,-180,0,-180,,33.87066342,0.17509103,0,,0,0,0,0,,0,0,0,0,,,,,,,,,,,,,,,,,,,,,,,,,,,,,,,
3.696479,1.5,0,-1.64,0,0,1,0,0,180,0,,-180,0,-180,,33.87066342,0.17509103,0,,0,0,0,0,,0,0,0,0,,,,,,,,,,,,,,,,,,,,,,,,,,,,,,,
3.707817,1.5,0,-1.64,0,0,1,0,0,180,0,,-180,0,-180,,33.87066342,0.17509103,0,,0,0,0,0,,0,0,0,0,,,,,,,,,,,,,,,,,,,,,,,,,,,,,,,
3.72969,1.5,0,-1.64,0,0,1,0,0,180,0,,-180,0,-180,,33.87066342,0.17509103,0,,0,0,0,0,,0,0,0,0,,,,,,,,,,,,,,,,,,,,,,,,,,,,,,,
3.74109,1.5,0,-1.64,0,0,1,0,0,180,0,,-180,0,-180,,33.87066342,0.17509103,0,,0,0,0,0,,0,0,0,0,,,,,,,,,,,,,,,,,,,,,,,,,,,,,,,
3.762694,1.5,0,-1.64,0,0,1,0,0,180,0,,-180,0,-180,,33.87066342,0.17509103,0,,0,0,0,0,,0,0,0,0,,,,,,,,,,,,,,,,,,,,,,,,,,,,,,,
3.784984,1.5,0,-1.64,0,0,1,0,0,180,0,,-180,0,-180,,33.87066342,0.17509103,0,,0,0,0,0,,0,0,0,0,,,,,,,,,,,,,,,,,,,,,,,,,,,,,,,
3.807415,1.5,0,-1.64,0,0,1,0,0,180,0,,-180,0,-180,,33.87066342,0.17509103,0,,0,0,0,0,,0,0,0,0,,,,,,,,,,,,,,,,,,,,,,,,,,,,,,,
3.829182,1.5,0,-1.64,0,0,1,0,0,180,0,,-180,0,-180,,33.87066342,0.17509103,0,,0,0,0,0,,0,0,0,0,,,,,,,,,,,,,,,,,,,,,,,,,,,,,,,
3.840569,1.5,0,-1.64,0,0,1,0,0,180,0,,-180,0,-180,,33.87066342,0.17509103,0,,0,0,0,0,,0,0,0,0,,,,,,,,,,,,,,,,,,,,,,,,,,,,,,,
3.863154,1.5,0,-1.64,0,0,1,0,0,180,0,,-180,0,-180,,33.87066342,0.17509103,0,,0,0,0,0,,0,0,0,0,,,,,,,,,,,,,,,,,,,,,,,,,,,,,,,
3.885166,1.5,0,-1.64,0,0,1,0,0,180,0,,-180,0,-180,,33.87066342,0.17509103,0,,0,0,0,0,,0,0,0,0,,,,,,,,,,,,,,,,,,,,,,,,,,,,,,,
3.896768,1.5,0,-1.64,0,0,1,0,0,180,0,,-180,0,-180,,33.87066342,0.17509103,0,,0,0,0,0,,0,0,0,0,,,,,,,,,,,,,,,,,,,,,,,,,,,,,,,
3.918291,1.5,0,-1.64,0,0,1,0,0,180,0,,-180,0,-180,,33.87066342,0.17509103,0,,0,0,0,0,,0,0,0,0,,,,,,,,,,,,,,,,,,,,,,,,,,,,,,,
3.929758,1.5,0,-1.64,0,0,1,0,0,180,0,,-180,0,-180,,33.87066342,0.17509103,0,,0,0,0,0,,0,0,0,0,,,,,,,,,,,,,,,,,,,,,,,,,,,,,,,
3.95183,1.5,0,-1.64,0,0,1,0,0,180,0,,-180,0,-180,,33.87066342,0.17509103,0,,0,0,0,0,,0,0,0,0,,,,,,,,,,,,,,,,,,,,,,,,,,,,,,,
3.963323,1.5,0,-1.64,0,0,1,0,0,180,0,,-180,0,-180,,33.87066342,0.17509103,0,,0,0,0,0,,0,0,0,0,,,,,,,,,,,,,,,,,,,,,,,,,,,,,,,
3.98529,1.5,0,-1.64,0,0,1,0,0,180,0,,-180,0,-180,,33.87066342,0.17509103,0,,0,0,0,0,,0,0,0,0,,,,,,,,,,,,,,,,,,,,,,,,,,,,,,,
3.996694,1.5,0,-1.64,0,0,1,0,0,180,0,,-180,0,-180,,33.87066342,0.17509103,0,,0,0,0,0,,0,0,0,0,,,,,,,,,,,,,,,,,,,,,,,,,,,,,,,
4.018626,1.5,0,-1.64,0,0,1,0,0,180,0,,-180,0,-180,,33.87066342,0.17509103,0,,0,0,0,0,,0,0,0,0,,,,,,,,,,,,,,,,,,,,,,,,,,,,,,,
4.029928,1.5,0,-1.64,0,0,1,0,0,180,0,,-180,0,-180,,33.87066342,0.17509103,0,,0,0,0,0,,0,0,0,0,,,,,,,,,,,,,,,,,,,,,,,,,,,,,,,
4.052073,1.5,0,-1.64,0,0,1,0,0,180,0,,-180,0,-180,,33.87066342,0.17509103,0,,0,0,0,0,,0,0,0,0,,,,,,,,,,,,,,,,,,,,,,,,,,,,,,,
4.073803,1.5,0,-1.64,0,0,1,0,0,180,0,,-180,0,-180,,33.87066342,0.17509103,0,,0,0,0,0,,0,0,0,0,,,,,,,,,,,,,,,,,,,,,,,,,,,,,,,
4.095854,1.5,0,-1.64,0,0,1,0,0,180,0,,-180,0,-180,,33.87066342,0.17509103,0,,0,0,0,0,,0,0,0,0,,,,,,,,,,,,,,,,,,,,,,,,,,,,,,,
4.118042,1.5,0,-1.64,0,0,1,0,0,180,0,,-180,0,-180,,33.87066342,0.17509103,0,,0,0,0,0,,0,0,0,0,,,,,,,,,,,,,,,,,,,,,,,,,,,,,,,
4.129513,1.5,0,-1.64,0,0,1,0,0,180,0,,-180,0,-180,,33.87066342,0.17509103,0,,0,0,0,0,,0,0,0,0,,,,,,,,,,,,,,,,,,,,,,,,,,,,,,,
4.151827,1.5,0,-1.64,0,0,1,0,0,180,0,,-180,0,-180,,33.87066342,0.17509103,0,,0,0,0,0,,0,0,0,0,,,,,,,,,,,,,,,,,,,,,,,,,,,,,,,
4.16342,1.5,0,-1.64,0,0,1,0,0,180,0,,-180,0,-180,,33.87066342,0.17509103,0,,0,0,0,0,,0,0,0,0,,,,,,,,,,,,,,,,,,,,,,,,,,,,,,,
4.185678,1.5,0,-1.64,0,0,1,0,0,180,0,,-180,0,-180,,33.87066342,0.17509103,0,,0,0,0,0,,0,0,0,0,,,,,,,,,,,,,,,,,,,,,,,,,,,,,,,
4.208408,1.5,0,-1.64,0,0,1,0,0,180,0,,-180,0,-180,,33.87066342,0.17509103,0,,0,0,0,0,,0,0,0,0,,,,,,,,,,,,,,,,,,,,,,,,,,,,,,,
4.230015,1.5,0,-1.64,0,0,1,0,0,180,0,,-180,0,-180,,33.87066342,0.17509103,0,,0,0,0,0,,0,0,0,0,,,,,,,,,,,,,,,,,,,,,,,,,,,,,,,
4.251879,1.5,0,-1.64,0,0,1,0,0,180,0,,-180,0,-180,,33.87066342,0.17509103,0,,0,0,0,0,,0,0,0,0,,,,,,,,,,,,,,,,,,,,,,,,,,,,,,,
4.274279,1.5,0,-1.64,0,0,1,0,0,180,0,,-180,0,-180,,33.87066342,0.17509103,0,,0,0,0,0,,0,0,0,0,,,,,,,,,,,,,,,,,,,,,,,,,,,,,,,
4.285668,1.5,0,-1.64,0,0,1,0,0,180,0,,-180,0,-180,,33.87066342,0.17509103,0,,0,0,0,0,,0,0,0,0,,,,,,,,,,,,,,,,,,,,,,,,,,,,,,,
4.30837,1.5,0,-1.64,0,0,1,0,0,180,0,,-180,0,-180,,33.87066342,0.17509103,0,,0,0,0,0,,0,0,0,0,,,,,,,,,,,,,,,,,,,,,,,,,,,,,,,
4.330262,1.5,0,-1.64,0,0,1,0,0,180,0,,-180,0,-180,,33.87066342,0.17509103,0,,0,0,0,0,,0,0,0,0,,,,,,,,,,,,,,,,,,,,,,,,,,,,,,,
4.352311,1.5,0,-1.64,0,0,1,0,0,180,0,,-180,0,-180,,33.87066342,0.17509103,0,,0,0,0,0,,0,0,0,0,,,,,,,,,,,,,,,,,,,,,,,,,,,,,,,
4.363828,1.5,0,-1.64,0,0,1,0,0,180,0,,-180,0,-180,,33.87066342,0.17509103,0,,0,0,0,0,,0,0,0,0,,,,,,,,,,,,,,,,,,,,,,,,,,,,,,,
4.386,1.5,0,-1.64,0,0,1,0,0,180,0,,-180,0,-180,,33.87066342,0.17509103,0,,0,0,0,0,,0,0,0,0,,,,,,,,,,,,,,,,,,,,,,,,,,,,,,,
4.408075,1.5,0,-1.64,0,0,1,0,0,180,0,,-180,0,-180,,33.87066342,0.17509103,0,,0,0,0,0,,0,0,0,0,,,,,,,,,,,,,,,,,,,,,,,,,,,,,,,
4.430319,1.5,0,-1.64,0,0,1,0,0,180,0,,-180,0,-180,,33.87066342,0.17509103,0,,0,0,0,0,,0,0,0,0,,,,,,,,,,,,,,,,,,,,,,,,,,,,,,,
4.441468,1.5,0,-1.64,0,0,1,0,0,180,0,,-180,0,-180,,33.87066342,0.17509103,0,,0,0,0,0,,0,0,0,0,,,,,,,,,,,,,,,,,,,,,,,,,,,,,,,
4.463854,1.5,0,-1.64,0,0,1,0,0,180,0,,-180,0,-180,,33.87066342,0.17509103,0,,0,0,0,0,,0,0,0,0,,,,,,,,,,,,,,,,,,,,,,,,,,,,,,,
4.485778,1.5,0,-1.64,0,0,1,0,0,180,0,,-180,0,-180,,33.87066342,0.17509103,0,,0,0,0,0,,0,0,0,0,,,,,,,,,,,,,,,,,,,,,,,,,,,,,,,
4.497497,1.5,0,-1.64,0,0,1,0,0,180,0,,-180,0,-180,,33.87066342,0.17509103,0,,0,0,0,0,,0,0,0,0,,,,,,,,,,,,,,,,,,,,,,,,,,,,,,,
4.519066,1.5,0,-1.64,0,0,1,0,0,180,0,,-180,0,-180,,33.87066342,0.17509103,0,,0,0,0,0,,0,0,0,0,,,,,,,,,,,,,,,,,,,,,,,,,,,,,,,
4.540652,1.5,0,-1.64,0,0,1,0,0,180,0,,-180,0,-180,,33.87066342,0.17509103,0,,0,0,0,0,,0,0,0,0,,,,,,,,,,,,,,,,,,,,,,,,,,,,,,,
4.551951,1.5,0,-1.64,0,0,1,0,0,180,0,,-180,0,-180,,33.87066342,0.17509103,0,,0,0,0,0,,0,0,0,0,,,,,,,,,,,,,,,,,,,,,,,,,,,,,,,
4.573909,1.5,0,-1.64,0,0,1,0,0,180,0,,-180,0,-180,,33.87066342,0.17509103,0,,0,0,0,0,,0,0,0,0,,,,,,,,,,,,,,,,,,,,,,,,,,,,,,,
4.585225,1.5,0,-1.64,0,0,1,0,0,180,0,,-180,0,-180,,33.87066342,0.17509103,0,,0,0,0,0,,0,0,0,0,,,,,,,,,,,,,,,,,,,,,,,,,,,,,,,
4.607309,1.5,0,-1.64,0,0,1,0,0,180,0,,-180,0,-180,,33.87066342,0.17509103,0,,0,0,0,0,,0,0,0,0,,,,,,,,,,,,,,,,,,,,,,,,,,,,,,,
4.629881,1.5,0,-1.64,0,0,1,0,0,180,0,,-180,0,-180,,33.87066342,0.17509103,0,,0,0,0,0,,0,0,0,0,,,,,,,,,,,,,,,,,,,,,,,,,,,,,,,
4.651692,1.5,0,-1.64,0,0,1,0,0,180,0,,-180,0,-180,,33.87066342,0.17509103,0,,0,0,0,0,,0,0,0,0,,,,,,,,,,,,,,,,,,,,,,,,,,,,,,,
4.674377,1.5,0,-1.64,0,0,1,0,0,180,0,,-180,0,-180,,33.87066342,0.17509103,0,,0,0,0,0,,0,0,0,0,,,,,,,,,,,,,,,,,,,,,,,,,,,,,,,
4.696295,1.5,0,-1.64,0,0,1,0,0,180,0,,-180,0,-180,,33.87066342,0.17509103,0,,0,0,0,0,,0,0,0,0,,,,,,,,,,,,,,,,,,,,,,,,,,,,,,,
4.71833,1.5,0,-1.64,0,0,1,0,0,180,0,,-180,0,-180,,33.87066342,0.17509103,0,,0,0,0,0,,0,0,0,0,,,,,,,,,,,,,,,,,,,,,,,,,,,,,,,
4.740318,1.5,0,-1.64,0,0,1,0,0,180,0,,-180,0,-180,,33.87066342,0.17509103,0,,0,0,0,0,,0,0,0,0,,,,,,,,,,,,,,,,,,,,,,,,,,,,,,,
4.752263,1.5,0,-1.64,0,0,1,0,0,180,0,,-180,0,-180,,33.87066342,0.17509103,0,,0,0,0,0,,0,0,0,0,,,,,,,,,,,,,,,,,,,,,,,,,,,,,,,
4.773299,1.5,0,-1.64,0,0,1,0,0,180,0,,-180,0,-180,,33.87066342,0.17509103,0,,0,0,0,0,,0,0,0,0,,,,,,,,,,,,,,,,,,,,,,,,,,,,,,,
4.795598,1.5,0,-1.64,0,0,1,0,0,180,0,,-180,0,-180,,33.87066342,0.17509103,0,,0,0,0,0,,0,0,0,0,,,,,,,,,,,,,,,,,,,,,,,,,,,,,,,
4.817721,1.5,0,-1.64,0,0,1,0,0,180,0,,-180,0,-180,,33.87066342,0.17509103,0,,0,0,0,0,,0,0,0,0,,,,,,,,,,,,,,,,,,,,,,,,,,,,,,,
4.829091,1.5,0,-1.64,0,0,1,0,0,180,0,,-180,0,-180,,33.87066342,0.17509103,0,,0,0,0,0,,0,0,0,0,,,,,,,,,,,,,,,,,,,,,,,,,,,,,,,
4.850903,1.5,0,-1.64,0,0,1,0,0,180,0,,-180,0,-180,,33.87066342,0.17509103,0,,0,0,0,0,,0,0,0,0,,,,,,,,,,,,,,,,,,,,,,,,,,,,,,,
4.86216,1.5,0,-1.64,0,0,1,0,0,180,0,,-180,0,-180,,33.87066342,0.17509103,0,,0,0,0,0,,0,0,0,0,,,,,,,,,,,,,,,,,,,,,,,,,,,,,,,
4.884688,1.5,0,-1.64,0,0,1,0,0,180,0,,-180,0,-180,,33.87066342,0.17509103,0,,0,0,0,0,,0,0,0,0,,,,,,,,,,,,,,,,,,,,,,,,,,,,,,,
4.906435,1.5,0,-1.64,0,0,1,0,0,180,0,,-180,0,-180,,33.87066342,0.17509103,0,,0,0,0,0,,0,0,0,0,,,,,,,,,,,,,,,,,,,,,,,,,,,,,,,
4.928873,1.5,0,-1.64,0,0,1,0,0,180,0,,-180,0,-180,,33.87066342,0.17509103,0,,0,0,0,0,,0,0,0,0,,,,,,,,,,,,,,,,,,,,,,,,,,,,,,,
4.951183,1.5,0,-1.64,0,0,1,0,0,180,0,,-180,0,-180,,33.87066342,0.17509103,0,,0,0,0,0,,0,0,0,0,,,,,,,,,,,,,,,,,,,,,,,,,,,,,,,
4.97324,1.5,0,-1.64,0,0,1,0,0,180,0,,-180,0,-180,,33.87066342,0.17509103,0,,0,0,0,0,,0,0,0,0,,,,,,,,,,,,,,,,,,,,,,,,,,,,,,,
4.995653,1.5,0,-1.64,0,0,1,0,0,180,0,,-180,0,-180,,33.87066342,0.17509103,0,,0,0,0,0,,0,0,0,0,,,,,,,,,,,,,,,,,,,,,,,,,,,,,,,
5.01756,1.5,0,-1.64,0,0,1,0,0,180,0,,-180,0,-180,,33.87066342,0.17509103,0,,0,0,0,0,,0,0,0,0,,,,,,,,,,,,,,,,,,,,,,,,,,,,,,,
5.03977,1.5,0,-1.64,0,0,1,0,0,180,0,,-180,0,-180,,33.87066342,0.17509103,0,,0,0,0,0,,0,0,0,0,,,,,,,,,,,,,,,,,,,,,,,,,,,,,,,
5.062048,1.5,0,-1.64,0,0,1,0,0,180,0,,-180,0,-180,,33.87066342,0.17509103,0,,0,0,0,0,,0,0,0,0,,,,,,,,,,,,,,,,,,,,,,,,,,,,,,,
5.084135,1.5,0,-1.64,0,0,1,0,0,180,0,,-180,0,-180,,33.87066342,0.17509103,0,,0,0,0,0,,0,0,0,0,,,,,,,,,,,,,,,,,,,,,,,,,,,,,,,
5.106482,1.5,0,-1.64,0,0,1,0,0,180,0,,-180,0,-180,,33.87066342,0.17509103,0,,0,0,0,0,,0,0,0,0,,,,,,,,,,,,,,,,,,,,,,,,,,,,,,,
5.128604,1.5,0,-1.64,0,0,1,0,0,180,0,,-180,0,-180,,33.87066342,0.17509103,0,,0,0,0,0,,0,0,0,0,,,,,,,,,,,,,,,,,,,,,,,,,,,,,,,
5.139903,1.5,0,-1.64,0,0,1,0,0,180,0,,-180,0,-180,,33.87066342,0.17509103,0,,0,0,0,0,,0,0,0,0,,,,,,,,,,,,,,,,,,,,,,,,,,,,,,,
5.151175,1.5,0,-1.64,0,0,1,0,0,180,0,,-180,0,-180,,33.87066342,0.17509103,0,,0,0,0,0,,0,0,0,0,,,,,,,,,,,,,,,,,,,,,,,,,,,,,,,
5.172968,1.5,0,-1.64,0,0,1,0,0,180,0,,-180,0,-180,,33.87066342,0.17509103,0,,0,0,0,0,,0,0,0,0,,,,,,,,,,,,,,,,,,,,,,,,,,,,,,,
5.195267,1.5,0,-1.64,0,0,1,0,0,180,0,,-180,0,-180,,33.87066342,0.17509103,0,,0,0,0,0,,494.2697392,-181.8113219,421.8261885,674.7557078,,,,,,,,,,,,,,,,,,,,,,,,,,,,,,,
5.217497,1.5,0,-1.64,0,0,1,0,0,180,0,,-180,0,-180,,33.87066342,0.17509103,0,,0,0,0,0,,989.0263268,-358.0874927,838.2428548,1345.009595,,,,,,,,,,,,,,,,,,,,,,,,,,,,,,,
5.228693,1.5,0,-1.64,0,0,1,0,0,180,0,,-180,0,-180,,33.87066342,0.17509103,0,,0,0,0,0,,988.6155243,-347.9480547,828.292475,1335.850638,,,,,,,,,,,,,,,,,,,,,,,,,,,,,,,
5.251054,1.5,0,-1.64,0,0,1,0,0,180,0,,-180,0,-180,,33.87066342,0.17509103,0,,0,0,0,0,,987.1101655,-335.3472587,816.351614,1324.112616,,,,,,,,,,,,,,,,,,,,,,,,,,,,,,,
5.272962,1.5,0,-1.64,0,0,1,0,0,180,0,,-180,0,-180,,33.87066342,0.17509103,0,,0,0,0,0,,987.6931676,-314.6112203,797.81798,1308.064044,,,,,,,,,,,,,,,,,,,,,,,,,,,,,,,
5.284189,1.5,0,-1.64,0,0,1,0,0,180,0,,-180,0,-180,,33.87066342,0.17509103,0,,0,0,0,0,,990.8412439,-288.2573254,774.6342541,1290.316583,,,,,,,,,,,,,,,,,,,,,,,,,,,,,,,
5.29549,1.5,0,-1.64,0,0,1,0,0,180,0,,-180,0,-180,,33.87066342,0.17509103,0,,6425.50661,-2363.547184,5483.740451,8771.824201,,995.0393783,-260.4151638,749.5014953,1272.663315,,,,,,,,,,,,,,,,,,,,,,,,,,,,,,,
5.317351,1.141241,1.413117,1.822511,-0.6436973,0.663501,0.1946327,0.3279305,280.936,76.66099,239.7601,,100.936,-103.33901,59.7601,,112.9346634,-103.163919,-120.2399,,6431.835638,-2291.590221,5413.416661,8713.493867,,999.7304415,-232.61305,723.7885701,1255.961656,,,,,,,,,,,,,,,,,,,,,,,,,,,,,,,
5.339495,1.147214,1.422092,1.81519,-0.6397128,0.667505,0.1931171,0.3284972,281.2163,79.84782,236.6456,,101.2163,-100.15218,56.6456,,112.6543634,-99.97708897,-123.3544,,-5.340432687,131.8126946,-129.3549377,184.7587794,,1005.327159,-207.5985307,700.6886217,1242.877465,,,,,,,,,,,,,,,,,,,,,,,,,,,,,,,
5.350828,1.149934,1.426038,1.811727,-0.6386781,0.6689178,0.1949973,0.32652,280.9518,81.20451,235.3076,,100.9518,-98.79549,55.3076,,112.9188634,-98.62039897,-124.6924,,-19.56966407,163.8103483,-155.2311931,226.5248889,,1010.704338,-189.3310888,684.4840052,1235.268341,,,,,,,,,,,,,,,,,,,,,,,,,,,,,,,
5.372973,1.154957,1.437189,1.80686,-0.63525,0.67428,0.1965275,0.321218,280.6019,85.80866,231.0469,,100.6019,-94.19134,51.0469,,113.2687634,-94.01624897,-128.9531,,7.579027873,269.5684991,-240.937241,361.6287758,,1013.655879,-178.0263141,675.1822259,1230.878811,,,,,,,,,,,,,,,,,,,,,,,,,,,,,,,
5.39529,1.157861,1.445527,1.804035,-0.6278315,0.6851065,0.189989,0.3167978,281.2928,93.20067,224.5867,,101.2928,-86.79933,44.5867,,112.5778634,-86.62423897,-135.4133,,40.92499125,342.6006338,-301.3884367,458.1321195,,1010.377159,-178.9747694,676.9092843,1229.268136,,,,,,,,,,,,,,,,,,,,,,,,,,,,,,,
5.417331,1.155203,1.451166,1.800686,-0.6176314,0.6978933,0.1829208,0.3130755,282.4145,101.0026,217.6812,,102.4145,-78.9974,37.6812,,111.4561634,-78.82230897,-142.3188,,54.57574811,361.9480997,-326.7258644,490.6472558,,1001.517807,-193.8327977,691.3790537,1232.320603,,,,,,,,,,,,,,,,,,,,,,,,,,,,,,,
5.43971,1.153579,1.457179,1.797497,-0.6044983,0.7121716,0.1787881,0.3089147,283.7183,109.2811,210.069,,103.7183,-70.7189,30.069,,110.1523634,-70.54380897,-149.931,,60.98382038,361.4274796,-334.2680282,496.0685074,,500.4825111,-23.01191191,279.7260386,573.8108997,,,,,,,,,,,,,,,,,,,,,,,,,,,,,,,
5.45093,1.155184,1.46123,1.795106,-0.5973485,0.719475,0.1775733,0.3065912,284.4331,113.241,206.3845,,104.4331,-66.759,26.3845,,109.4375634,-66.58390897,-153.6155,,72.75733442,325.1887513,-300.2993293,448.5766834,,3.995940582,157.4302183,-141.2296125,211.5326089,,,,,,,,,,,,,,,,,,,,,,,,,,,,,,,
5.472889,1.155161,1.467751,1.791256,-0.5820803,0.7342887,0.1738115,0.3029723,286.2295,119.7726,200.407,,106.2295,-60.2274,20.407,,107.6411634,-60.05230897,-159.593,,69.90332362,237.4767441,-210.6600137,325.0527957,,5.711483699,156.6192983,-140.6002846,210.5484877,,,,,,,,,,,,,,,,,,,,,,,,,,,,,,,
5.495315,1.152648,1.471282,1.787839,-0.571946,0.7448329,0.1700081,0.2986623,287.5302,123.7534,197.0631,,107.5302,-56.2466,17.0631,,106.3404634,-56.07150897,-162.9369,,38.37003517,146.9620713,-120.9231313,194.1455992,,9.623421568,148.0835801,-132.9688689,199.2538005,,,,,,,,,,,,,,,,,,,,,,,,,,,,,,,
5.517513,1.149193,1.4736,1.784155,-0.5680113,0.7501565,0.1689782,0.2933851,287.9462,126.3376,195.0045,,107.9462,-53.6624,15.0045,,105.9244634,-53.48730897,-164.9955,,-42.6233642,-12.32991794,22.45175874,49.7278546,,11.47844854,128.676442,-115.8980966,173.5561877,,,,,,,,,,,,,,,,,,,,,,,,,,,,,,,
5.528724,1.151025,1.475843,1.781212,-0.5764487,0.7436124,0.1712694,0.2922571,286.7804,124.756,196.5476,,106.7804,-55.244,16.5476,,107.0902634,-55.06890897,-163.4524,,-115.1715727,-193.1543683,188.1070024,293.1848317,,10.16211653,102.884356,-93.14755689,139.1579199,,,,,,,,,,,,,,,,,,,,,,,,,,,,,,,
5.550719,1.149189,1.476053,1.777166,-0.5970712,0.7267277,0.1765849,0.2901563,284.0012,119.3621,201.795,,104.0012,-60.6379,21.795,,109.8694634,-60.46280897,-158.205,,-87.95224098,-142.8756694,132.2512547,213.6339111,,6.494411019,72.48046012,-65.0311492,97.59428692,,,,,,,,,,,,,,,,,,,,,,,,,,,,,,,
5.572867,1.146037,1.475515,1.773892,-0.6028941,0.7210783,0.1823837,0.2886192,282.9038,118.4647,202.3693,,102.9038,-61.5353,22.3693,,110.9668634,-61.36020897,-157.6307,,-22.48977858,54.15747137,-59.0068028,83.19029163,,0.185309798,40.52740937,-34.85838259,53.45663745,,,,,,,,,,,,,,,,,,,,,,,,,,,,,,,
5.584095,1.143599,1.474186,1.772833,-0.6012337,0.7228967,0.183568,0.2867772,282.9551,120.1358,200.7531,,102.9551,-59.8642,20.7531,,110.9155634,-59.68910897,-159.2469,,16.96162784,121.2707349,-121.1736754,172.2711455,,-8.822772268,12.10852778,-8.145713529,17.05316406,,,,,,,,,,,,,,,,,,,,,,,,,,,,,,,
5.606521,1.141605,1.472906,1.769859,-0.5955055,0.7273073,0.1838485,0.287397,283.6134,122.2373,198.5463,,103.6134,-57.7627,18.5463,,110.2572634,-57.58760897,-161.4537,,31.28552822,52.84601179,-56.02278874,83.12663891,,-17.67812492,-2.544642325,3.986841371,18.29989643,,,,,,,,,,,,,,,,,,,,,,,,,,,,,,,
5.628534,1.144906,1.473377,1.765407,-0.5911239,0.7305044,0.1814503,0.2898476,284.3446,122.5011,198.246,,104.3446,-57.4989,18.246,,109.5260634,-57.32380897,-161.754,,31.69437852,17.2757038,-19.01720134,40.79996959,,-21.31319565,-6.188528485,4.739092033,22.69381385,,,,,,,,,,,,,,,,,,,,,,,,,,,,,,,
5.650508,1.142886,1.470793,1.762762,-0.586839,0.7336403,0.1796736,0.2917351,285.0076,122.997,197.71,,105.0076,-57.003,17.71,,108.8630634,-56.82790897,-162.29,,23.81267506,7.303515189,-5.631420357,25.53620416,,-15.31457281,7.472162477,-12.17665274,20.9437395,,,,,,,,,,,,,,,,,,,,,,,,,,,,,,,
5.661864,1.142831,1.469751,1.761366,-0.585963,0.7344544,0.1783906,0.2922344,285.2058,122.9066,197.8591,,105.2058,-57.0934,17.8591,,108.6648634,-56.91830897,-162.1409,,6.895576517,-33.3025462,38.78743566,51.58559609,,-3.401419845,33.19316407,-41.1024247,52.94114764,,,,,,,,,,,,,,,,,,,,,,,,,,,,,,,
5.683982,1.141227,1.466574,1.759086,-0.5880469,0.7330208,0.1762361,0.2929545,285.1248,121.6095,199.2845,,105.1248,-58.3905,19.2845,,108.7458634,-58.21540897,-160.7155,,-21.0344955,-53.96218011,57.97793765,81.9500344,,5.161264607,42.80319473,-51.05992552,66.82715111,,,,,,,,,,,,,,,,,,,,,,,,,,,,,,,
5.695368,1.140791,1.464703,1.757761,-0.591084,0.7307471,0.177183,0.2919497,284.6875,121.0484,199.871,,104.6875,-58.9516,19.871,,109.1831634,-58.77650897,-160.129,,-44.34773244,-44.25670942,46.96536855,78.30149133,,8.848175345,34.31288003,-40.28668636,53.65334138,,,,,,,,,,,,,,,,,,,,,,,,,,,,,,,
5.717367,1.14136,1.461971,1.754814,-0.5980939,0.7256077,0.1803542,0.2885301,283.5812,120.1853,200.8042,,103.5812,-59.8147,20.8042,,110.2894634,-59.63960897,-159.1958,,-45.21626088,46.98553277,-52.93679998,83.99080503,,9.952672273,23.23620323,-26.06066758,36.306132,,,,,,,,,,,,,,,,,,,,,,,,,,,,,,,
5.728766,1.142455,1.461413,1.752701,-0.5987498,0.7248653,0.185017,0.2860729,283.1236,121.7037,199.1138,,103.1236,-58.2963,19.1138,,110.7470634,-58.12120897,-160.8862,,-8.885884288,99.59155125,-111.1438727,149.5004898,,9.393837813,22.36979225,-21.44762605,32.38290378,,,,,,,,,,,,,,,,,,,,,,,,,,,,,,,
5.750561,1.144846,1.460777,1.748221,-0.5943562,0.7278792,0.1857989,0.2870738,283.6112,123.1417,197.5011,,103.6112,-56.8583,17.5011,,110.2594634,-56.68320897,-162.4989,,35.35873271,165.2590646,-197.4529233,259.9008567,,8.230863328,27.65121556,-21.73383679,36.12058271,,,,,,,,,,,,,,,,,,,,,,,,,,,,,,,
5.761923,1.145542,1.460965,1.745666,-0.58702,0.731782,0.1914341,0.2885405,284.1605,126.1474,193.8549,,104.1605,-53.8526,13.8549,,109.7101634,-53.67750897,-166.1451,,39.69941579,141.2186523,-187.9280331,238.4023846,,6.740506029,34.78123896,-22.88319689,42.17593751,,,,,,,,,,,,,,,,,,,,,,,,,,,,,,,
5.783898,1.146521,1.461142,1.740863,-0.580628,0.7337347,0.1946646,0.2942962,284.8429,126.5407,192.6475,,104.8429,-53.4593,12.6475,,109.0277634,-53.28420897,-167.3525,,23.36265691,-17.94527075,2.803743993,29.59235476,,6.230845668,43.77531829,-25.11366279,50.85074226,,,,,,,,,,,,,,,,,,,,,,,,,,,,,,,
5.806046,1.147816,1.46011,1.736393,-0.5800501,0.7344256,0.1908315,0.2962168,285.19,125.3494,193.9886,,105.19,-54.6506,13.9886,,108.6806634,-54.47550897,-166.0114,,25.44006101,-56.21661977,81.04530627,101.8619002,,7.93414884,52.8620508,-26.41452859,59.6244451,,,,,,,,,,,,,,,,,,,,,,,,,,,,,,,
5.817353,1.15227,1.459845,1.733803,-0.5796201,0.7362875,0.1853173,0.2959373,285.5881,124.6863,195.1367,,105.5881,-55.3137,15.1367,,108.2825634,-55.13860897,-164.8633,,31.32008791,-22.7260635,63.76456879,74.58781471,,5.209409821,65.82048031,-33.02626085,73.82552055,,,,,,,,,,,,,,,,,,,,,,,,,,,,,,,
5.839342,1.156076,1.45832,1.729885,-0.578056,0.7404639,0.1778643,0.2931362,286.1913,124.9764,195.7082,,106.1913,-55.0236,15.7082,,107.6793634,-54.84850897,-164.2918,,24.02068024,41.58266913,3.946751145,48.1839008,,1.456615122,54.71139953,-15.69558795,56.93689882,,,,,,,,,,,,,,,,,,,,,,,,,,,,,,,
5.850565,1.157648,1.45762,1.72814,-0.5773997,0.7431141,0.1743396,0.2898219,286.4226,125.7617,195.5051,,106.4226,-54.2383,15.5051,,107.4480634,-54.06320897,-164.4949,,16.57571022,85.93420686,-22.73794098,90.42375815,,8.250869861,31.5070234,10.03906374,34.08155187,,,,,,,,,,,,,,,,,,,,,,,,,,,,,,,
5.872611,1.160924,1.45505,1.725096,-0.5776064,0.7489597,0.16592,0.2791072,286.6991,128.0081,194.9015,,106.6991,-51.9919,14.9015,,107.1715634,-51.81680897,-165.0985,,4.438030167,99.99381931,-20.5731016,102.1846981,,20.91244876,22.93965717,18.5150148,36.14365998,,,,,,,,,,,,,,,,,,,,,,,,,,,,,,,
5.883877,1.163115,1.453776,1.723389,-0.5790583,0.751222,0.1615072,0.2725298,286.6578,129.1132,194.7464,,106.6578,-50.8868,14.7464,,107.2128634,-50.71170897,-165.2536,,0.269991819,83.62048519,9.791378917,84.19221781,,35.69825531,23.44054343,22.01140495,48.04504612,,,,,,,,,,,,,,,,,,,,,,,,,,,,,,,
5.906084,1.166257,1.4502,1.720128,-0.5822932,0.7561854,0.1485221,0.2589586,286.7512,130.6488,195.487,,106.7512,-49.3512,15.487,,107.1194634,-49.17610897,-164.513,,1.108445753,64.16534251,41.06668222,76.18984329,,45.36567401,37.25150831,14.1352505,60.37817947,,,,,,,,,,,,,,,,,,,,,,,,,,,,,,,
5.917346,1.16676,1.447661,1.718648,-0.584496,0.7582696,0.1415771,0.2516895,286.7288,131.3153,196.0364,,106.7288,-48.6847,16.0364,,107.1418634,-48.50960897,-163.9636,,-79.76933969,124.2028742,-38.98715077,152.6744885,,45.3532491,54.21367757,3.208301093,70.75544668,,,,,,,,,,,,,,,,,,,,,,,,,,,,,,,
5.939433,1.168402,1.44374,1.716108,-0.6049643,0.7478328,0.1499037,0.228677,283.249,135.4947,193.2367,,103.249,-44.5053,13.2367,,110.6216634,-44.33020897,-166.7633,,-94.00259196,-97.43251745,172.3619477,219.176239,,41.40577828,70.45183416,-6.065937522,81.94324261,,,,,,,,,,,,,,,,,,,,,,,,,,,,,,,
5.961475,1.169285,1.440867,1.713908,-0.6191492,0.7407215,0.1300057,0.2260186,282.5777,127.0286,203.6291,,102.5777,-52.9714,23.6291,,111.2929634,-52.79630897,-156.3709,,79.43942731,-202.0653384,223.4065993,311.530949,,38.87196035,81.27382987,-8.539348542,90.49522195,,,,,,,,,,,,,,,,,,,,,,,,,,,,,,,
5.983799,1.170481,1.436121,1.709157,-0.5939978,0.7562841,0.1190896,0.2470194,286.8044,126.5812,203.0784,,106.8044,-53.4188,23.0784,,107.0662634,-53.24370897,-156.9216,,199.9592584,53.8833036,-87.26555951,224.7273755,,38.85729378,83.48834332,-5.484210643,92.25112095,,,,,,,,,,,,,,,,,,,,,,,,,,,,,,,
5.99508,1.169857,1.433447,1.707627,-0.5780591,0.767003,0.1135432,0.2542873,289.18,128.023,201.3878,,109.18,-51.977,21.3878,,104.6906634,-51.80190897,-158.6122,,231.914901,147.7301737,-142.4749611,309.6899095,,34.55805718,75.26924992,0.818458066,82.8274663,,,,,,,,,,,,,,,,,,,,,,,,,,,,,,,
6.017125,1.17181,1.430287,1.704662,-0.540671,0.7939838,0.09466515,0.2613485,294.7628,131.7189,198.4098,,114.7628,-48.2811,18.4098,,99.10786342,-48.10600897,-161.5902,,149.0391,161.5972727,-99.58626382,241.3374314,,24.9460528,65.92540469,3.809075727,70.59018056,,,,,,,,,,,,,,,,,,,,,,,,,,,,,,,
6.039283,1.172705,1.42541,1.703333,-0.5338575,0.8042822,0.08489405,0.2468181,295.7562,135.1654,196.9898,,115.7562,-44.8346,16.9898,,98.11446342,-44.65950897,-163.0102,,25.27853708,164.2915807,-61.00503604,177.0659265,,15.29748517,57.62594685,1.597810144,59.64323767,,,,,,,,,,,,,,,,,,,,,,,,,,,,,,,
6.050463,1.175,1.423405,1.701964,-0.5334678,0.8081418,0.08022538,0.2363957,295.8202,137.1,196.3422,,115.8202,-42.9,16.3422,,98.05046342,-42.72490897,-163.6578,,-19.9970327,188.3699722,-56.8005332,197.7610384,,13.92821402,34.44900848,8.318519894,38.07790834,,,,,,,,,,,,,,,,,,,,,,,,,,,,,,,
6.061791,1.176518,1.420529,1.700672,-0.5371939,0.8102856,0.07556251,0.2216986,295.3023,139.4075,195.7115,,115.3023,-40.5925,15.7115,,98.56836342,-40.41740897,-164.2885,,-8.918952812,182.2686133,-28.20759212,184.6539016,,14.83577771,17.1974917,9.080684804,24.46043453,,,,,,,,,,,,,,,,,,,,,,,,,,,,,,,
6.083713,1.183396,1.416561,1.695711,-0.5351202,0.8191876,0.05732647,0.1982212,295.9135,142.9334,195.6953,,115.9135,-37.0666,15.6953,,97.95716342,-36.89150897,-164.3047,,16.38504481,114.7228818,16.97885171,117.1242532,,4.710473064,10.15353615,11.40467043,15.97965458,,,,,,,,,,,,,,,,,,,,,,,,,,,,,,,
6.106231,1.189223,1.412316,1.690733,-0.5363629,0.8225522,0.04418794,0.1837664,296.0236,144.4783,196.4766,,116.0236,-35.5217,16.4766,,97.84706342,-35.34660897,-163.5234,,-51.45204561,-6.854394866,61.36159161,80.37126757,,-11.34252965,0.605876264,24.54387793,27.04481482,,,,,,,,,,,,,,,,,,,,,,,,,,,,,,,
6.128121,1.192872,1.407164,1.686078,-0.554493,0.8108488,0.04598812,0.1815128,293.664,142.6764,198.4035,,113.664,-37.3236,18.4035,,100.2066634,-37.14850897,-161.5965,,-124.6860652,-37.84950287,48.66940852,139.0967687,,-26.44567619,-3.104454878,29.07900227,39.42841364,,,,,,,,,,,,,,,,,,,,,,,,,,,,,,,
6.150457,1.198077,1.402734,1.68043,-0.5754936,0.7979244,0.05336316,0.1711028,290.5017,142.8242,198.6115,,110.5017,-37.1758,18.6115,,103.3689634,-37.00070897,-161.3885,,-124.3229334,-43.72760937,12.32022964,132.3634528,,-32.08019207,-5.56650864,26.84366423,42.19842475,,,,,,,,,,,,,,,,,,,,,,,,,,,,,,,
6.172658,1.173481,1.384886,1.68149,-0.5900294,0.7846481,0.06895026,0.1773096,288.1247,140.7357,198.9518,,108.1247,-39.2643,18.9518,,105.7459634,-39.08920897,-161.0482,,-97.5698647,-177.0973247,48.38207598,207.9042236,,-28.73767895,-15.1781334,25.686297,41.4248208,,,,,,,,,,,,,,,,,,,,,,,,,,,,,,,
6.194733,1.158666,1.37344,1.68012,-0.6008689,0.7680172,0.09306672,0.2011088,286.1805,134.9935,200.7495,,106.1805,-45.0065,20.7495,,107.6901634,-44.83140897,-159.2505,,-82.20426394,-321.7022356,182.2700915,378.7773167,,-22.42325789,-34.80891548,32.0368703,52.35288101,,,,,,,,,,,,,,,,,,,,,,,,,,,,,,,
6.217206,1.163643,1.372823,1.673665,-0.6149674,0.7506229,0.1031727,0.2184851,284.465,126.38,207.1117,,104.465,-53.62,27.1117,,109.4056634,-53.44490897,-152.8883,,-52.1895331,-293.6367606,253.6184124,391.4953303,,-15.11986207,-52.87666491,35.32567689,65.36402198,,,,,,,,,,,,,,,,,,,,,,,,,,,,,,,
6.239429,1.152479,1.362018,1.673332,-0.6237596,0.7439998,0.09788869,0.2186461,283.8418,121.8467,212.0926,,103.8418,-58.1533,32.0926,,110.0288634,-57.97820897,-147.9074,,-8.729776875,-70.23627488,83.544138,109.4941382,,-8.832065472,-61.54154575,29.89842466,68.98755707,,,,,,,,,,,,,,,,,,,,,,,,,,,,,,,
6.261624,1.148343,1.356551,1.671751,-0.6213536,0.7464584,0.09741607,0.2173244,284.0767,123.2565,210.8265,,104.0767,-56.7435,30.8265,,109.7939634,-56.56840897,-149.1735,,35.57399591,99.49586884,-83.51834475,134.6857491,,2.465285636,-58.11830431,15.63595793,60.23535597,,,,,,,,,,,,,,,,,,,,,,,,,,,,,,,
6.283731,1.145777,1.353498,1.670305,-0.6121394,0.7551342,0.09146488,0.2160831,285.4156,126.2514,208.3949,,105.4156,-53.7486,28.3949,,108.4550634,-53.57350897,-151.6051,,75.79039362,129.5905738,-128.6456582,197.7058572,,16.94369078,-55.70032581,3.398574072,58.31951009,,,,,,,,,,,,,,,,,,,,,,,,,,,,,,,
6.305871,1.145802,1.353993,1.668618,-0.5968496,0.7655465,0.09042004,0.2225609,287.4307,128.9903,205.1337,,107.4307,-51.0097,25.1337,,106.4399634,-50.83460897,-154.8663,,68.73120769,39.34045879,-76.05081012,109.7969778,,28.90747625,-58.07574026,1.878416463,64.89963204,,,,,,,,,,,,,,,,,,,,,,,,,,,,,,,
6.328213,1.148687,1.356797,1.666124,-0.5898977,0.7674503,0.0921996,0.2335379,288.4684,127.9843,205.0264,,108.4684,-52.0157,25.0264,,105.4022634,-51.84060897,-154.9736,,62.0904411,-66.83019494,25.75691975,94.78880075,,36.91030316,-49.43349656,2.910890805,61.76175473,,,,,,,,,,,,,,,,,,,,,,,,,,,,,,,
6.350409,1.151587,1.359892,1.663534,-0.5811236,0.7706881,0.08678721,0.2465832,290.1938,126.017,206.2764,,110.1938,-53.983,26.2764,,103.6768634,-53.80790897,-153.7236,,86.02519278,-52.61212927,14.54689355,101.8821969,,40.35300053,-29.36963225,-3.846248009,50.0573029,,,,,,,,,,,,,,,,,,,,,,,,,,,,,,,
6.361668,1.151914,1.361246,1.662677,-0.5742403,0.7738374,0.08535759,0.2532546,291.2557,125.8302,205.9699,,111.2557,-54.1698,25.9699,,102.6149634,-53.99470897,-154.0301,,98.12640059,2.079430869,-53.57542731,111.8187862,,40.23103191,-12.60707388,-14.78448782,44.67723493,,,,,,,,,,,,,,,,,,,,,,,,,,,,,,,
6.384227,1.153909,1.365081,1.660493,-0.5570849,0.781625,0.08574325,0.2671458,293.5553,126.2983,204.1668,,113.5553,-53.7017,24.1668,,100.3153634,-53.52660897,-155.8332,,95.41351878,37.6477439,-124.0504759,160.964632,,38.00618294,-13.32223712,-12.98639345,42.31546241,,,,,,,,,,,,,,,,,,,,,,,,,,,,,,,
6.406315,1.158009,1.370777,1.657977,-0.5372767,0.7884349,0.09751294,0.2831878,295.5187,127.5031,200.4522,,115.5187,-52.4969,20.4522,,98.35196342,-52.32180897,-159.5478,,63.53320157,-6.415782356,-110.4165816,127.5517599,,32.92996562,-23.87666424,-4.86913287,40.96567082,,,,,,,,,,,,,,,,,,,,,,,,,,,,,,,
6.428229,1.161817,1.375578,1.655633,-0.5278518,0.7865602,0.1089779,0.3013624,296.3553,126.0266,199.2982,,116.3553,-53.9734,19.2982,,97.51536342,-53.79830897,-160.7018,,31.20627787,-74.60799728,-7.441819268,81.21308829,,25.22947502,-32.5986131,1.255648157,41.2404248,,,,,,,,,,,,,,,,,,,,,,,,,,,,,,,
6.450089,1.1652,1.379918,1.653761,-0.5251074,0.7843763,0.1093817,0.3115312,296.8851,124.2376,200.124,,116.8851,-55.7624,20.124,,96.98556342,-55.58730897,-159.876,,6.466885025,-64.74815662,61.80424242,89.7435723,,19.06860214,-34.07059872,4.971033713,39.35896925,,,,,,,,,,,,,,,,,,,,,,,,,,,,,,,
6.47235,1.169645,1.384982,1.651714,-0.5308236,0.7824311,0.1022595,0.3091454,296.6335,123.1767,202.0347,,116.6335,-56.8233,22.0347,,97.23716342,-56.64820897,-157.9653,,-37.44919806,-60.87199947,94.42728694,118.4244708,,14.51441767,-26.37570601,2.098068566,30.178603,,,,,,,,,,,,,,,,,,,,,,,,,,,,,,,
6.494713,1.173719,1.390192,1.649566,-0.5439204,0.7753998,0.1004973,0.3046411,295.2113,121.5199,204.3386,,115.2113,-58.4801,24.3386,,98.65936342,-58.30500897,-155.6614,,-53.77512515,-75.72350184,111.4212948,145.0534996,,8.537128487,-18.02512287,0.264598481,19.94636883,,,,,,,,,,,,,,,,,,,,,,,,,,,,,,,
6.517125,1.175673,1.394971,1.648215,-0.5551469,0.7699859,0.09509413,0.2998178,294.2262,119.7861,207.024,,114.2262,-60.2139,27.024,,99.64446342,-60.03880897,-152.976,,-37.65281348,-79.533397,106.9193648,138.4739909,,0.893275262,-16.42965846,5.839043637,17.45926826,,,,,,,,,,,,,,,,,,,,,,,,,,,,,,,
6.539663,1.179677,1.401289,1.646451,-0.5630743,0.7647408,0.09314163,0.299071,293.5196,117.9446,209.143,,113.5196,-62.0554,29.143,,100.3510634,-61.88030897,-150.857,,-30.41682933,-37.71168366,22.00604283,53.21297316,,-6.955501122,-22.1536794,17.87005447,29.30022787,,,,,,,,,,,,,,,,,,,,,,,,,,,,,,,
6.561388,1.18437,1.40902,1.644033,-0.563831,0.7622077,0.1026885,0.3009802,292.8791,118.0811,208.0566,,112.8791,-61.9189,28.0566,,100.9915634,-61.74380897,-151.9434,,-24.31598416,16.20523858,-49.02350487,57.07171693,,-10.28924021,-21.61996748,23.55410291,33.58700971,,,,,,,,,,,,,,,,,,,,,,,,,,,,,,,
6.58343,1.190895,1.417752,1.6414,-0.5638909,0.7614126,0.1088371,0.3007198,292.457,118.657,206.9977,,112.457,-61.343,26.9977,,101.4136634,-61.16790897,-153.0023,,-11.36013975,20.20464574,-27.75079789,36.15781061,,-8.183094427,-9.596191959,16.78165632,20.99223484,,,,,,,,,,,,,,,,,,,,,,,,,,,,,,,
6.594661,1.192351,1.421068,1.640517,-0.5640438,0.7616251,0.1087878,0.2999116,292.4169,118.8174,206.9139,,112.4169,-61.1826,26.9139,,101.4537634,-61.00750897,-153.0861,,2.886042987,33.20341034,-11.59162717,35.28684632,,-5.58044751,3.248576606,6.181597359,8.93905981,,,,,,,,,,,,,,,,,,,,,,,,,,,,,,,
6.605932,1.195892,1.425583,1.639234,-0.5635536,0.7633279,0.1065977,0.297279,292.5222,119.4049,206.7367,,112.5222,-60.5951,26.7367,,101.3484634,-60.42000897,-153.2633,,8.320433437,55.94545153,-9.288217549,57.31835783,,-3.27620204,13.29380516,-3.904479899,14.23740562,,,,,,,,,,,,,,,,,,,,,,,,,,,,,,,
6.627896,1.201381,1.433936,1.6372,-0.5636842,0.7671518,0.09983929,0.2894311,292.6825,120.7176,206.674,,112.6825,-59.2824,26.674,,101.1881634,-59.10730897,-153.326,,-1.243691332,22.82046821,18.89235972,29.65201162,,-1.678098462,23.53283856,-14.63478115,27.76305683,,,,,,,,,,,,,,,,,,,,,,,,,,,,,,,
6.639188,1.20342,1.437611,1.636404,-0.5653188,0.7667869,0.09804771,0.287818,292.572,120.5581,207.1329,,112.572,-59.4419,27.1329,,101.2986634,-59.26680897,-152.8671,,-6.620574214,-36.76452839,32.35266488,49.41818972,,-1.247049913,34.38391643,-24.56651041,42.27673446,,,,,,,,,,,,,,,,,,,,,,,,,,,,,,,
6.661269,1.208164,1.445904,1.634689,-0.5659479,0.7636758,0.1013188,0.2936608,292.4957,119.2464,207.6643,,112.4957,-60.7536,27.6643,,101.3749634,-60.57850897,-152.3357,,20.19459346,0.522472639,-36.52395191,41.73839534,,-0.447891623,39.16450037,-25.74235882,46.86926214,,,,,,,,,,,,,,,,,,,,,,,,,,,,,,,
6.672495,1.215342,1.453602,1.632397,-0.5610223,0.7660272,0.1030278,0.2963806,292.9879,119.925,206.5741,,112.9879,-60.075,26.5741,,100.8827634,-59.89990897,-153.4259,,58.58617303,81.70108447,-95.48362487,138.6525495,,-0.116617913,34.37930652,-17.91381692,38.76667581,,,,,,,,,,,,,,,,,,,,,,,,,,,,,,,
6.694979,1.220814,1.462145,1.630184,-0.5482109,0.7755279,0.0987248,0.2971106,294.6366,122.2398,204.4639,,114.6366,-57.7602,24.4639,,99.23406342,-57.58510897,-155.5361,,40.30129494,102.2338347,-75.99652408,133.6092175,,1.734280454,30.5164513,-16.09241097,34.54312116,,,,,,,,,,,,,,,,,,,,,,,,,,,,,,,
6.716835,1.225903,1.470026,1.628974,-0.5459157,0.7806492,0.09608261,0.2886712,294.7956,124.4585,203.1932,,114.7956,-55.5415,23.1932,,99.07506342,-55.36640897,-156.8068,,-7.49400695,69.71597177,-36.69171741,79.13759528,,7.346591514,31.91913585,-24.13710884,40.68665215,,,,,,,,,,,,,,,,,,,,,,,,,,,,,,,
6.728033,1.228892,1.473702,1.627939,-0.5473244,0.7807214,0.09626177,0.2857337,294.5463,124.8831,203.0225,,114.5463,-55.1169,23.0225,,99.32436342,-54.94180897,-156.9775,,-32.99977864,57.38393233,-28.07262147,71.90252538,,15.23700522,32.47338935,-30.01868079,46.77401566,,,,,,,,,,,,,,,,,,,,,,,,,,,,,,,
6.750042,1.233008,1.480462,1.626191,-0.5522986,0.7807376,0.0982281,0.275257,293.5837,126.5745,202.1223,,113.5837,-53.4255,22.1223,,100.2869634,-53.25040897,-157.8777,,-32.04918235,61.53061537,-22.19311553,72.84024364,,18.74667087,33.96370988,-33.6062616,51.3259396,,,,,,,,,,,,,,,,,,,,,,,,,,,,,,,
6.761377,1.23544,1.484311,1.624882,-0.5540335,0.7811276,0.0968977,0.2711043,293.3529,127.0983,202.0828,,113.3529,-52.9017,22.0828,,100.5177634,-52.72660897,-157.9172,,-20.02777156,24.43590744,6.720013497,32.30145178,,16.93792113,38.81360034,-38.68685926,57.35906052,,,,,,,,,,,,,,,,,,,,,,,,,,,,,,,
6.783587,1.240547,1.491126,1.622586,-0.557585,0.7800085,0.09580547,0.2674081,292.9155,127.1574,202.4587,,112.9155,-52.8426,22.4587,,100.9551634,-52.66750897,-157.5413,,-20.00942593,-46.00228136,52.74753982,72.7934748,,16.13432947,41.77193947,-40.53304331,60.39982711,,,,,,,,,,,,,,,,,,,,,,,,,,,,,,,
6.805801,1.242751,1.495268,1.621184,-0.5631178,0.7751027,0.09458931,0.270494,292.464,125.0545,204.4262,,112.464,-54.9455,24.4262,,101.4066634,-54.77040897,-155.5738,,12.70153903,-30.01247215,-4.072520489,32.84300537,,14.11829949,39.99469368,-37.46897245,56.59351376,,,,,,,,,,,,,,,,,,,,,,,,,,,,,,,
6.827934,1.246345,1.50179,1.618143,-0.5526809,0.7786753,0.1011856,0.2792314,293.4761,125.8212,202.2856,,113.4761,-54.1788,22.2856,,100.3945634,-54.00370897,-157.7144,,75.84608677,51.43830949,-116.1726995,147.9683232,,10.27381883,35.04936951,-33.7845459,49.75344408,,,,,,,,,,,,,,,,,,,,,,,,,,,,,,,
6.842186,1.246618,1.50426,1.616923,-0.5396689,0.7846996,0.103644,0.2868136,294.9863,126.7937,200.3526,,114.9863,-53.2063,20.3526,,98.88436342,-53.03120897,-159.6474,,110.8958116,63.15074707,-85.74865298,153.7489167,,8.624201782,28.41853682,-31.69916461,43.43762342,,,,,,,,,,,,,,,,,,,,,,,,,,,,,,,
6.859327,1.247497,1.507657,1.615722,-0.5267341,0.793636,0.09539211,0.2891254,296.9717,127.789,199.7378,,116.9717,-52.211,19.7378,,96.89896342,-52.03590897,-160.2622,,44.38196213,42.19463502,-27.74619074,67.23092211,,9.387887205,20.25135873,-30.47465576,37.77505261,,,,,,,,,,,,,,,,,,,,,,,,,,,,,,,
6.88163,1.247564,1.508373,1.615301,-0.5299001,0.7926203,0.09807014,0.2852038,296.3681,128.3761,199.3001,,116.3681,-51.6239,19.3001,,97.50256342,-51.44880897,-160.6999,,-30.13432081,26.28404768,-33.6951047,52.29042488,,11.12262526,11.78461536,-31.16228042,35.12374798,,,,,,,,,,,,,,,,,,,,,,,,,,,,,,,
6.903711,1.248533,1.509318,1.614678,-0.5323817,0.7904906,0.1054868,0.2838432,295.6349,128.9556,198.2454,,115.6349,-51.0444,18.2454,,98.23576342,-50.86930897,-161.7546,,9.747901904,38.98088127,-60.52434464,72.64796618,,13.80769163,8.292571654,-34.59183797,38.15775605,,,,,,,,,,,,,,,,,,,,,,,,,,,,,,,
