Time,X,Y,Z,wquat,xquat,yquat,zquat,xrot,yrot,zrot,,,,,,118.1375752,-5.297241584,10.90991188,,v_roll,v_pitch,v_yaw,V,,vxavg,vyavg,vzavg,avg speed,,Phase,GFO,Movement,,,,,,,,,,,,,,,,,,,,,,,,,,,
0,1.5,0,-1.64,0,0,1,0,0,180,0,,-180,0,-180,,-61.86242475,5.297241584,169.0900881,,,,,30,,,,,,,,,,,,,,,,,,,,,,,,,,,,,,,,,,,,
0,1.847688,1.826186,-1.937088,0.1008267,-0.2779684,0.4257957,0.8551407,308.3455,321.1058,185.9465,,128.3455,141.1058,5.9465,,-10.20792475,146.4030416,-4.963411881,,#DIV/0!,#DIV/0!,#DIV/0!,#DIV/0!,,,,,,,,,,,,,,,,,,,,,,,,,,,,,,,,,,,,
0.02,1.84785,1.822349,-1.923093,0.1199791,-0.258416,0.4156039,0.8637706,308.7411,326.3579,180.6893,,128.7411,146.3579,0.6893,,-10.60352475,151.6551416,-10.22061188,,18.4802614,233.8700301,-224.4588071,324.6821017,,,,,,,,,,,,,,,,,,,,,,,,,,,,,,,,,,,,
0.0514193,1.847475,1.815724,-1.904902,0.1401068,-0.2309708,0.4063127,0.8728875,309.2809,332.8031,174.8435,,129.2809,152.8031,-5.1565,,-11.14332475,158.1003416,-16.06641188,,22.02632427,142.2030576,-115.6453217,184.6096124,,,,,,,,,,,,,,,,,,,,,,,,,,,,,,,,,,,,
0.0659883,1.846985,1.813153,-1.899515,0.1404126,-0.2246785,0.4033961,0.8758284,309.6724,333.958,174.1845,,129.6724,153.958,-5.8155,,-11.53482475,159.2552416,-16.72541188,,32.8738772,61.19376429,-26.16028427,74.22754922,,,,,,,,,,,,,,,,,,,,,,,,,,,,,,,,,,,,
0.0796884,1.846278,1.810525,-1.894738,0.1382468,-0.2207237,0.3998037,0.8788207,310.205,334.5487,174.0874,,130.205,154.5487,-5.9126,,-12.06742475,159.8459416,-16.82251188,,45.35915646,17.85134437,25.61213497,55.06455328,,#DIV/0!,#DIV/0!,#DIV/0!,#DIV/0!,,,,,,,,,,,,,,,,,,,,,,,,,,,,,,,
0.096414,1.845094,1.805691,-1.88622,0.1298095,-0.2186754,0.3947969,0.8828737,311.0721,334.4247,175.0627,,131.0721,154.4247,-4.9373,,-12.93452475,159.7219416,-15.84721188,,34.43483655,-38.50270987,80.53272399,95.67516015,,#DIV/0!,#DIV/0!,#DIV/0!,#DIV/0!,,,,,,,,,,,,,,,,,,,,,,,,,,,,,,,
0.1077372,1.843951,1.803395,-1.883538,0.1232389,-0.2208397,0.3946603,0.8833376,311.2649,333.6367,176.2262,,131.2649,153.6367,-3.7738,,-13.12732475,158.9339416,-14.68371188,,18.52463018,-60.2644473,93.24638949,112.560449,,#DIV/0!,#DIV/0!,#DIV/0!,#DIV/0!,,,,,,,,,,,,,,,,,,,,,,,,,,,,,,,
0.130367,1.84176,1.799791,-1.879096,0.1117838,-0.2235057,0.393638,0.8846461,311.718,332.484,178.1212,,131.718,152.484,-1.8788,,-13.58042475,157.7812416,-12.78871188,,34.16591279,-34.01911474,70.00710917,85.00355933,,4.577520447,21.91311635,0.218183876,22.38718307,,,,,,,,,,,,,,,,,,,,,,,,,,,,,,,
0.1522488,1.840168,1.798141,-1.87659,0.1015511,-0.2230079,0.3874887,0.8887111,312.7751,332.1098,179.3526,,132.7751,152.1098,-0.6474,,-14.63752475,157.4070416,-11.55731188,,32.90403837,-10.57904345,46.80909769,58.18662671,,-0.696248322,-9.205980812,29.01272146,30.44622885,,,,,,,,,,,,,,,,,,,,,,,,,,,,,,,
0.1635869,1.839479,1.797926,-1.877158,0.09804131,-0.2220956,0.3867303,0.8896635,312.9735,332.0638,179.776,,132.9735,152.0638,-0.224,,-14.83592475,157.3610416,-11.13391188,,-8.825816438,13.18778913,14.14796681,21.25976911,,-6.575128871,-38.49058689,54.93169086,67.3962036,,,,,,,,,,,,,,,,,,,,,,,,,,,,,,,
0.1852511,1.838051,1.79878,-1.881376,0.09876364,-0.2170268,0.3928322,0.8881599,312.212,332.7231,179.58,,132.212,152.7231,-0.42,,-14.07442475,158.0203416,-11.32991188,,-39.2389987,37.0970379,-21.47494889,58.11250012,,-12.9533074,-60.31949909,73.36031907,95.85388128,,,,,,,,,,,,,,,,,,,,,,,,,,,,,,,
0.1967841,1.836616,1.799236,-1.885034,0.1009751,-0.2140703,0.3964114,0.8870378,311.7123,333.2278,179.189,,131.7123,153.2278,-0.811,,-13.57472475,158.5250416,-11.72091188,,-40.99672986,27.61415023,-21.34125045,53.83978197,,-20.07990948,-76.33700433,85.54295988,116.3964732,,,,,,,,,,,,,,,,,,,,,,,,,,,,,,,
0.2187778,1.833818,1.801143,-1.893329,0.1031226,-0.2121414,0.4028606,0.8843445,310.8619,333.48,178.9959,,130.8619,153.48,-1.0041,,-12.72432475,158.7772416,-11.91401188,,-42.45321299,-18.89166754,12.84682353,48.21007437,,-27.22374942,-85.12191048,90.96016437,127.5171505,,,,,,,,,,,,,,,,,,,,,,,,,,,,,,,
0.2302417,1.832452,1.803003,-1.899015,0.1030336,-0.2146764,0.4071808,0.8817607,310.3318,332.9154,179.3911,,130.3318,152.9154,-0.6089,,-12.19422475,158.2126416,-11.51881188,,-47.74651341,-85.88967829,68.71475714,119.9103174,,-33.17570981,-88.43172959,92.04675189,131.8840515,,,,,,,,,,,,,,,,,,,,,,,,,,,,,,,
0.2513575,1.829465,1.806115,-1.911757,0.09770354,-0.2257144,0.4170574,0.8749686,309.2918,330.3281,181.5651,,129.2918,150.3281,1.5651,,-11.15422475,155.6253416,-9.344811881,,-50.07873259,-170.6782329,149.8701815,232.5940884,,-39.17983096,-90.31730214,91.27756909,134.2530031,,,,,,,,,,,,,,,,,,,,,,,,,,,,,,,
0.262708,1.828297,1.808013,-1.919388,0.09107403,-0.2357472,0.4238818,0.8697431,308.714,327.8443,183.7987,,128.714,147.8443,3.7987,,-10.57642475,153.1415416,-7.111211881,,-54.39912287,-238.4968214,221.3012806,329.870058,,-43.51563173,-92.13348172,90.07349665,135.9978803,,,,,,,,,,,,,,,,,,,,,,,,,,,,,,,
0.2845172,1.826785,1.812123,-1.935541,0.07513762,-0.2559796,0.4406669,0.8571123,307.4514,322.2139,189.1598,,127.4514,142.2139,9.1598,,-9.313824752,147.5111416,-1.750111881,,-50.04244373,-222.5820942,213.4118824,312.3966491,,-43.11825021,-101.46908,97.15208168,146.9478978,,,,,,,,,,,,,,,,,,,,,,,,,,,,,,,
0.296766,1.826179,1.814232,-1.9434,0.0689983,-0.2634535,0.447986,0.8515516,306.9346,319.9234,191.3769,,126.9346,139.9234,11.3769,,-8.797024752,145.2206416,0.466988119,,-47.28667047,-190.3762237,183.9864656,268.9426617,,-38.41677277,-120.0194005,114.2213192,170.0794364,,,,,,,,,,,,,,,,,,,,,,,,,,,,,,,
0.3177028,1.82495,1.818192,-1.960558,0.05972682,-0.2753889,0.462655,0.8405617,305.8379,315.8668,195.2914,,125.8379,135.8668,15.2914,,-7.700324752,141.1640416,4.381488119,,-58.43508275,-152.7064899,150.9563824,222.5348519,,-32.48026401,-139.5280431,132.566806,195.1845292,,,,,,,,,,,,,,,,,,,,,,,,,,,,,,,
0.3292335,1.824211,1.819609,-1.970174,0.05783151,-0.277549,0.4703174,0.8357174,305.0943,314.5793,196.6168,,125.0943,134.5793,16.6168,,-6.956724752,139.8765416,5.706888119,,-58.85085489,-103.2920958,107.3720271,160.1918612,,-25.32229948,-155.2534938,147.8688749,215.8936552,,,,,,,,,,,,,,,,,,,,,,,,,,,,,,,
0.3512939,1.822308,1.822534,-1.988478,0.05476531,-0.2804543,0.482592,0.8279198,303.9204,312.4852,198.8184,,123.9204,132.4852,18.8184,,-5.782824752,137.7824416,7.908488119,,-43.88766219,-58.53155783,60.00773288,94.62028408,,-16.42443484,-164.6452216,157.3650854,228.3453112,,,,,,,,,,,,,,,,,,,,,,,,,,,,,,,
0.3732658,1.820157,1.824916,-2.006554,0.05642838,-0.2799441,0.4884978,0.8245102,303.161,311.9988,199.2626,,123.161,131.9988,19.2626,,-5.023424752,137.2960416,8.352688119,,-23.4613716,-34.189378,31.15615587,51.86574567,,-6.768234005,-164.6786164,157.3864993,227.8933212,,,,,,,,,,,,,,,,,,,,,,,,,,,,,,,
0.3966388,1.817647,1.826378,-2.02532,0.05507306,-0.2826623,0.4922926,0.8214116,302.8721,310.918,200.2465,,122.8721,130.918,20.2465,,-4.734524752,136.2152416,9.336588119,,-3.659856619,-108.1749883,106.1695723,151.615305,,3.582221988,-156.8059946,149.5077688,216.6876212,,,,,,,,,,,,,,,,,,,,,,,,,,,,,,,
0.4181239,1.813826,1.82603,-2.044558,0.0443501,-0.2932586,0.4992022,0.8141435,302.9804,307.2632,203.9042,,122.9804,127.2632,23.9042,,-4.842824752,132.5604416,12.99428812,,21.88020797,-204.0571282,200.4251392,286.8593584,,11.84245184,-147.5436737,139.7715069,203.5815647,,,,,,,,,,,,,,,,,,,,,,,,,,,,,,,
0.4405595,1.809125,1.823411,-2.063962,0.02747206,-0.3112668,0.5058104,0.804061,303.8491,301.9234,209.078,,123.8491,121.9234,29.078,,-5.711524752,127.2206416,18.16808812,,36.17788408,-225.9982046,217.1500776,315.4967258,,16.19611679,-137.022444,127.5371843,187.891452,,,,,,,,,,,,,,,,,,,,,,,,,,,,,,,
0.4629343,1.804946,1.820631,-2.082057,0.01345573,-0.3272266,0.5132467,0.7932966,304.6017,297.1354,213.6356,,124.6017,117.1354,33.6356,,-6.464124752,122.4326416,22.72568812,,50.60032589,-223.3225266,211.7737197,311.8997471,,19.95042567,-125.7782371,113.8071509,170.7930093,,,,,,,,,,,,,,,,,,,,,,,,,,,,,,,
0.4847697,1.800215,1.816205,-2.099325,-0.004075668,-0.3465367,0.5189907,0.7813734,306.077,292.0553,218.4362,,126.077,112.0553,38.4362,,-7.939424752,117.3525416,27.52628812,,67.92572683,-207.9821394,192.1654926,291.2010495,,25.20351066,-119.0197203,104.3796701,160.2998013,,,,,,,,,,,,,,,,,,,,,,,,,,,,,,,
0.4963239,1.797751,1.813927,-2.108097,-0.0115211,-0.3556692,0.5207795,0.7759868,306.866,289.9373,220.3366,,126.866,109.9373,40.3366,,-8.728424752,115.2345416,29.42668812,,75.45187829,-171.1123648,150.1485633,239.8270593,,30.64535835,-118.9650508,101.9167428,159.6209377,,,,,,,,,,,,,,,,,,,,,,,,,,,,,,,
0.5180519,1.793303,1.808524,-2.123047,-0.0253863,-0.3733396,0.5215219,0.7668038,308.6611,286.4844,223.2877,,128.6611,106.4844,43.2877,,-10.52352475,111.7816416,32.37778812,,80.15680503,-136.152738,118.8777837,197.7235669,,35.36706818,-122.090698,103.5121288,163.9259859,,,,,,,,,,,,,,,,,,,,,,,,,,,,,,,
0.5294964,1.791783,1.805611,-2.129057,-0.03218197,-0.3806481,0.5212516,0.7631305,309.5503,285.1867,224.4543,,129.5503,105.1867,44.4543,,-11.41272475,110.4839416,33.54438812,,57.34054437,-102.1719237,86.84047807,145.836582,,39.77169299,-118.9916031,99.60629938,160.1942697,,,,,,,,,,,,,,,,,,,,,,,,,,,,,,,
0.5515814,1.786654,1.799601,-2.142902,-0.03811371,-0.3904171,0.5232076,0.7565552,310.3671,283.178,226.0388,,130.3671,103.178,46.0388,,-12.22952475,108.4752416,35.12888812,,9.310973814,-53.6002374,24.940271,59.84727897,,43.06486262,-108.5314029,88.76588054,146.673206,,,,,,,,,,,,,,,,,,,,,,,,,,,,,,, 
0.5737081,1.7837,1.794577,-2.152874,-0.0309817,-0.3931627,0.5236179,0.7551739,309.9608,282.8185,225.555,,129.9608,102.8185,45.555,,-11.82322475,108.1157416,34.64508812,,-9.629067318,-6.5318001,-27.53405149,29.89159316,,45.64353208,-96.24388819,76.3895679,131.0785418,,,,,,,,,,,,,,,,,,,,,,,,,,,,,,,
0.5962602,1.780531,1.789838,-2.161739,-0.02625782,-0.3960116,0.5211194,0.7555925,309.9406,282.8903,224.8062,,129.9406,102.8903,44.8062,,-11.80302475,108.1875416,33.89628812,,9.439249963,-15.43137745,-15.18522402,23.6181684,,45.43985481,-81.53455121,62.12119951,112.1236232,,,,,,,,,,,,,,,,,,,,,,,,,,,,,,,
0.6182889,1.777699,1.78557,-2.168271,-0.02573463,-0.4026181,0.5194039,0.7532968,310.3762,282.1403,224.8686,,130.3762,102.1403,44.8686,,-12.23862475,107.4375416,33.95868812,,26.8563579,-57.82085394,27.98967856,69.62712989,,40.13753271,-63.39617687,44.69628634,87.33759091,,,,,,,,,,,,,,,,,,,,,,,,,,,,,,,
0.6404201,1.774758,1.782266,-2.173262,-0.02954474,-0.4124819,0.5204437,0.7470771,311.1273,280.3345,226.0448,,131.1273,100.3345,46.0448,,-12.98972475,105.6317416,35.13488812,,37.92085618,-74.82279169,51.89617373,98.63901023,,31.8028441,-44.9303561,27.1177447,61.36391341,,,,,,,,,,,,,,,,,,,,,,,,,,,,,,,
0.6628623,1.772229,1.779866,-2.176415,-0.03544609,-0.4214962,0.5206228,0.7416444,312.0677,278.8073,227.1814,,132.0677,98.8073,47.1814,,-13.93012475,104.1045416,36.27148812,,53.60026592,-67.8867549,55.39378989,102.7135432,,21.40938412,-27.67695888,10.4620864,36.52165157,,,,,,,,,,,,,,,,,,,,,,,,,,,,,,,
0.6849168,1.770294,1.779461,-2.17624,-0.04566254,-0.4316489,0.519479,0.736027,313.5078,277.3137,228.5078,,133.5078,97.3137,48.5078,,-15.37022475,102.6109416,37.59788812,,64.69141314,-68.07452577,59.49969431,111.1725398,,11.64455574,-12.40694285,-4.662696438,17.64280725,,,,,,,,,,,,,,,,,,,,,,,,,,,,,,,
0.696183,1.768967,1.779191,-2.176446,-0.05068348,-0.43687,0.5190414,0.7329201,314.2298,276.5428,229.1709,,134.2298,96.5428,49.1709,,-16.09222475,101.8400416,38.26098812,,69.70058697,-66.26051268,56.25801328,111.4162978,,5.017849487,1.994194827,-17.65922682,18.46629141,,,,,,,,,,,,,,,,,,,,,,,,,,,,,,,
0.7178664,1.768396,1.781516,-2.172403,-0.06152089,-0.4478886,0.5168819,0.7269416,315.8629,275.153,230.3344,,135.8629,95.153,50.3344,,-17.72532475,100.4502416,39.42448812,,47.95252138,-32.10114587,26.28493062,63.40997911,,1.359607808,15.35416056,-28.22105058,32.15628206,,,,,,,,,,,,,,,,,,,,,,,,,,,,,,,
0.735594,1.769144,1.784147,-2.16838,-0.06356729,-0.4496421,0.5151758,0.7268942,316.2279,275.1511,230.3151,,136.2279,95.1511,50.3151,,-18.09032475,100.4483416,39.40518812,,-1.004460401,27.81672694,-34.35837852,44.21851889,,-1.122536739,28.97065743,-38.51712056,48.20920718,,,,,,,,,,,,,,,,,,,,,,,,,,,,,,,
0.7577771,1.770824,1.789246,-2.160728,-0.0565705,-0.4462253,0.5109336,0.7325501,315.7266,276.3876,228.8149,,135.7266,96.3876,48.8149,,-17.58902475,101.6848416,37.90498812,,-32.89907365,68.9433053,-78.37247806,109.4430158,,-4.099195626,46.40938001,-52.55687878,70.23431828,,,,,,,,,,,,,,,,,,,,,,,,,,,,,,,
0.7799693,1.774276,1.795217,-2.150827,-0.04631374,-0.4390136,0.5069323,0.7403659,314.7679,278.2106,226.8372,,134.7679,98.2106,46.8372,,-16.63032475,103.5078416,35.92728812,,-54.95817473,88.14142578,-97.64577413,142.5622991,,-8.191682525,66.70781727,-70.21422671,97.19606052,,,,,,,,,,,,,,,,,,,,,,,,,,,,,,,
0.8021827,1.779458,1.802596,-2.137928,-0.03161686,-0.4292995,0.5043758,0.7485369,313.2859,280.3017,224.4787,,133.2859,100.3017,44.4787,,-15.14832475,105.5989416,33.56878812,,-69.60222453,96.33828469,-109.7816988,161.7947964,,-13.92257171,88.30747615,-90.25911499,127.0384044,,,,,,,,,,,,,,,,,,,,,,,,,,,,,,,
0.8135639,1.781826,1.80613,-2.13141,-0.0233669,-0.4240286,0.5033367,0.752533,312.4609,281.4232,223.1882,,132.4609,101.4232,43.1882,,-14.32332475,106.7204416,32.27828812,,-76.83620749,133.6145525,-144.014624,210.9427964,,-21.36406901,113.1607138,-114.1970971,162.1812183,,,,,,,,,,,,,,,,,,,,,,,,,,,,,,,
0.8357615,1.788084,1.813365,-2.114938,-0.003938069,-0.4084544,0.4979232,0.7649981,310.6588,285.1677,219.3116,,130.6588,105.1677,39.3116,,-12.52122475,110.4649416,28.40168812,,-57.18620915,167.1477544,-164.8377603,241.6197872,,-29.8064101,140.8340522,-141.1619045,201.616804,,,,,,,,,,,,,,,,,,,,,,,,,,,,,,,
0.8579352,1.794816,1.820142,-2.095782,0.007348593,-0.3955319,0.4898325,0.7768943,309.9229,288.8398,215.8739,,129.9229,108.8398,35.8739,,-11.78532475,114.1370416,24.96398812,,-22.82862915,161.5830819,-149.0341337,221.0009314,,-35.50565847,167.3062233,-167.272633,239.2324349,,,,,,,,,,,,,,,,,,,,,,,,,,,,,,,
0.8692109,1.798244,1.823241,-2.08617,0.01150201,-0.3897443,0.4852284,0.7826369,309.7823,290.6164,214.2611,,129.7823,110.6164,34.2611,,-11.64472475,115.9136416,23.35118812,,-11.84020764,168.8825397,-154.5271783,229.2163859,,-35.57359726,188.8601638,-188.3167115,269.0665831,,,,,,,,,,,,,,,,,,,,,,,,,,,,,,,
0.890975,1.805626,1.828298,-2.065674,0.02118052,-0.3769553,0.475095,0.7948213,309.5383,294.5384,210.6478,,129.5383,114.5384,30.6478,,-11.40072475,119.8356416,19.73788812,,-15.2814735,189.0568926,-177.6493494,259.8755922,,-31.88186388,204.2180165,-202.9422057,289.6670336,,,,,,,,,,,,,,,,,,,,,,,,,,,,,,,
0.9023176,1.809929,1.830197,-2.054959,0.02794477,-0.3693784,0.4698899,0.8012379,309.3188,296.7832,208.5009,,129.3188,116.7832,28.5009,,-11.18122475,122.0804416,17.59098812,,-20.90129351,212.9088107,-205.1897577,296.4285114,,-26.16001831,213.1795129,-211.0886136,301.1449054,,,,,,,,,,,,,,,,,,,,,,,,,,,,,,,
0.9246331,1.817854,1.833042,-2.034976,0.0444351,-0.3518164,0.4590687,0.8145592,308.8178,301.8691,203.5669,,128.8178,121.8691,23.5669,,-10.68022475,127.1663416,12.65698812,,-32.04805174,255.0175638,-251.6940728,359.7373232,,-19.69592959,215.2586438,-211.3474557,302.3110326,,,,,,,,,,,,,,,,,,,,,,,,,,,,,,,
0.9465155,1.826571,1.834168,-2.015109,0.06803736,-0.3293515,0.4496931,0.8274507,307.9065,308.0427,197.3898,,127.9065,128.0427,17.3898,,-9.768924752,133.3399416,6.479888119,,-40.04984717,293.4928869,-294.2844833,417.54691,,-12.85121524,209.7781183,-203.6157627,292.6284188,,,,,,,,,,,,,,,,,,,,,,,,,,,,,,,
0.9577574,1.831105,1.834195,-2.005293,0.08124479,-0.3168349,0.4451574,0.8335765,307.4742,311.4699,193.9466,,127.4742,131.4699,13.9466,,-9.336624752,136.7671416,3.036688119,,-26.13770751,312.037078,-313.1545401,442.8499563,,-7.063549386,201.422652,-194.3248653,279.9698765,,,,,,,,,,,,,,,,,,,,,,,,,,,,,,,
0.9799337,1.839042,1.833463,-1.986611,0.1071226,-0.2915181,0.4342877,0.845539,307.1677,318.5489,186.8496,,127.1677,138.5489,6.8496,,-9.030124752,143.8461416,-4.060311881,,-1.887664655,308.0179535,-307.9313984,435.5460585,,-2.710005029,193.6347099,-186.7966504,269.0626945,,,,,,,,,,,,,,,,,,,,,,,,,,,,,,,
1.002172,1.846576,1.830381,-1.969044,0.1306815,-0.2674516,0.4234373,0.8556243,307.3911,325.1497,180.2707,,127.3911,145.1497,0.2707,,-9.253524752,150.4469416,-10.63921188,,15.09346034,268.5953905,-268.5039031,380.0863617,,1.974041569,183.2823027,-176.5723128,254.5075264,,,,,,,,,,,,,,,,,,,,,,,,,,,,,,,
1.013646,1.85001,1.828593,-1.960711,0.1407467,-0.2572166,0.4186332,0.859521,307.6222,327.9077,177.5035,,127.6222,147.9077,-2.4965,,-9.484624752,153.2049416,-13.40641188,,19.42581772,204.6408786,-203.5490765,289.287881,,5.660475454,170.8947177,-163.7736889,236.7675373,,,,,,,,,,,,,,,,,,,,,,,,,,,,,,,
1.035452,1.856344,1.822986,-1.94548,0.1538361,-0.2429173,0.4123695,0.8644519,308.0302,331.591,173.8853,,128.0302,151.591,-6.1147,,-9.892624752,156.8882416,-17.02461188,,14.43092877,123.3669871,-113.1466461,168.0173465,,7.802066836,160.4325753,-152.7602144,221.6645361,,,,,,,,,,,,,,,,,,,,,,,,,,,,,,,
1.047076,1.858689,1.819567,-1.938952,0.1556841,-0.2386672,0.4112134,0.8658545,308.1482,332.4956,173.1836,,128.1482,152.4956,-6.8164,,-10.01062475,157.7928416,-17.72631188,,12.14507907,62.36772038,-43.5026152,77.00462986,,11.21775409,149.291562,-141.3104771,205.8700062,,,,,,,,,,,,,,,,,,,,,,,,,,,,,,,
1.069044,1.864208,1.813431,-1.925064,0.1559272,-0.2330915,0.4090255,0.8683624,308.4588,333.5262,172.5984,,128.4588,153.5262,-7.4016,,-10.32122475,158.8234416,-18.31151188,,18.05344695,58.52669239,-44.05609398,75.44693557,,15.67245137,134.0182234,-126.0328028,184.6368796,,,,,,,,,,,,,,,,,,,,,,,,,,,,,,,
1.080283,1.866616,1.810285,-1.918474,0.157986,-0.2296543,0.4068087,0.869946,308.7057,334.3145,171.9075,,128.7057,154.3145,-8.0925,,-10.56812475,159.6117416,-19.00241188,,33.76744749,60.33983427,-51.16734019,86.01879336,,18.03494542,115.4437829,-107.5820185,158.8282625,,,,,,,,,,,,,,,,,,,,,,,,,,,,,,,
1.102321,1.870172,1.803053,-1.906897,0.1594821,-0.2245811,0.398801,0.8746923,309.7099,335.4283,171.007,,129.7099,155.4283,-8.993,,-11.57232475,160.7255416,-19.90291188,,49.05239814,34.30124675,-21.61078935,63.63756365,,17.34247971,94.62319337,-86.86288389,129.612773,,,,,,,,,,,,,,,,,,,,,,,,,,,,,,,
1.124267,1.873452,1.796261,-1.896851,0.1569168,-0.2219128,0.3902811,0.8796661,310.8629,335.8247,170.9552,,130.8629,155.8247,-9.0448,,-12.72532475,161.1219416,-19.95471188,,32.642167,28.01828785,-11.26723921,44.46893523,,14.77650176,75.02665926,-67.43031111,101.9519076,,,,,,,,,,,,,,,,,,,,,,,,,,,,,,,
1.146548,1.877533,1.790908,-1.889176,0.1571154,-0.2169695,0.3883625,0.8817106,311.1469,336.6708,170.5057,,131.1469,156.6708,-9.4943,,-13.00932475,161.9680416,-20.40421188,,6.939394452,76.90095909,-62.01458952,99.03394377,,11.57538751,57.26150479,-49.92317901,76.84525574,,,,,,,,,,,,,,,,,,,,,,,,,,,,,,,
1.168623,1.880402,1.786492,-1.883908,0.166087,-0.2050379,0.3875504,0.8832776,311.1719,339.2277,168.2131,,131.1719,159.2277,-11.7869,,-13.03432475,164.5249416,-22.69681188,,12.35588252,110.1843911,-102.8474872,151.2311922,,7.655171644,40.07524185,-33.78243418,52.97055335,,,,,,,,,,,,,,,,,,,,,,,,,,,,,,,
1.190689,1.882726,1.783489,-1.880386,0.1751855,-0.1946423,0.3829777,0.8858626,311.6922,341.5345,165.9659,,131.6922,161.5345,-14.0341,,-13.55462475,166.8317416,-24.94401188,,17.8612175,94.93948476,-95.6747177,135.963894,,3.116082091,23.93465256,-19.59183298,31.08725591,,,,,,,,,,,,,,,,,,,,,,,,,,,,,,,
1.202004,1.883521,1.782906,-1.879978,0.179688,-0.1904941,0.3816893,0.8864183,311.8296,342.5001,164.9531,,131.8296,162.5001,-15.0469,,-13.69202475,167.7973416,-25.95681188,,4.574715188,70.56935206,-73.29434426,101.8480357,,-1.92658277,8.692891212,-6.144044963,10.81791881,,,,,,,,,,,,,,,,,,,,,,,,,,,,,,,
1.224217,1.88513,1.782306,-1.879776,0.1854087,-0.1851696,0.3821095,0.8861874,311.7631,343.7396,163.6852,,131.7631,163.7396,-16.3148,,-13.62552475,169.0368416,-27.22471188,,-10.88971893,37.3502891,-38.58264814,54.79279891,,-8.33286294,-4.33524275,5.399905479,10.8346626,,,,,,,,,,,,,,,,,,,,,,,,,,,,,,,
1.235598,1.8856,1.782723,-1.880874,0.1865856,-0.1844054,0.3837729,0.8853806,311.5493,343.9547,163.4566,,131.5493,163.9547,-16.5434,,-13.41172475,169.2519416,-27.45331188,,-18.26425305,13.84044699,-15.880457,27.88063533,,-16.33750286,-12.23933706,11.25897104,23.31265322,,,,,,,,,,,,,,,,,,,,,,,,,,,,,,,
1.246656,1.885834,1.783313,-1.882072,0.187371,-0.1842147,0.3852673,0.8846051,311.3531,344.0518,163.3275,,131.3531,164.0518,-16.6725,,-13.21552475,169.3490416,-27.58241188,,-22.18866752,-26.30612952,24.04364079,41.98149687,,-22.90825725,-17.02483125,13.25872051,31.471047,,,,,,,,,,,,,,,,,,,,,,,,,,,,,,,
1.268849,1.885083,1.785483,-1.888125,0.1821319,-0.1905746,0.3898837,0.8823265,310.762,342.6893,164.6538,,130.762,162.6893,-15.3462,,-12.62442475,167.9865416,-26.25611188,,-36.53187744,-100.0544311,96.68303656,143.850884,,-27.05928837,-27.12484811,20.64551766,43.52240655,,,,,,,,,,,,,,,,,,,,,,,,,,,,,,,
1.290525,1.884228,1.789442,-1.895835,0.1710777,-0.2040648,0.3981144,0.8778353,309.7556,339.6825,167.5498,,129.7556,159.6825,-12.4502,,-11.61802475,164.9797416,-23.36011188,,-46.86308513,-147.4599405,140.9752005,209.3193492,,-31.34707475,-44.50259487,36.04281813,65.28556337,,,,,,,,,,,,,,,,,,,,,,,,,,,,,,,
1.313203,1.883216,1.794108,-1.905866,0.1590824,-0.2193027,0.4075641,0.8720611,308.683,336.1401,170.914,,128.683,156.1401,-9.086,,-10.54542475,161.4373416,-19.99591188,,-47.50119624,-139.6162051,130.7651502,197.1004131,,-35.19344024,-65.1601457,55.61216197,92.61282515,,,,,,,,,,,,,,,,,,,,,,,,,,,,,,,
1.334972,1.882479,1.799329,-1.916844,0.1515358,-0.2304372,0.4167665,0.8661647,307.6445,333.4619,173.3779,,127.6445,153.4619,-6.6221,,-9.506924752,158.7591416,-17.53201188,,-49.51419473,-109.0259072,98.90401556,155.3071416,,-37.25833716,-87.31372745,77.15341719,122.3295568,,,,,,,,,,,,,,,,,,,,,,,,,,,,,,,
1.346386,1.882066,1.802063,-1.922695,0.1491695,-0.2347946,0.4217804,0.8629723,307.0587,332.3773,174.3438,,127.0587,152.3773,-5.6562,,-8.921124752,157.6745416,-16.56611188,,-55.0079208,-68.45197923,54.55706296,103.3828706,,-37.56944727,-108.608602,97.87253983,150.9514022,,,,,,,,,,,,,,,,,,,,,,,,,,,,,,,
1.368542,1.881706,1.808341,-1.936366,0.1507755,-0.2389587,0.4315622,0.8566911,305.7583,331.4494,174.8864,,125.7583,151.4494,-5.1136,,-7.620724752,156.7466416,-16.02351188,,-52.77764015,-34.19313666,14.72950394,64.5879879,,-36.52309386,-128.6951224,117.5802553,178.1052704,,,,,,,,,,,,,,,,,,,,,,,,,,,,,,,
1.39082,1.88008,1.81377,-1.951848,0.154027,-0.2422424,0.4388826,0.8514554,304.7143,330.8589,174.9971,,124.7143,150.8589,-5.0029,,-6.576724752,156.1561416,-15.91281188,,-47.02401011,-54.39926006,34.01377334,79.54541972,,-34.08516399,-147.1004081,135.529414,202.9003462,,,,,,,,,,,,,,,,,,,,,,,,,,,,,,,
1.413223,1.87793,1.818573,-1.968033,0.1526545,-0.2496037,0.4473577,0.8451424,303.6572,329.0153,176.4098,,123.6572,149.0153,-3.5902,,-5.519624752,154.3125416,-14.50011188,,-43.38534032,-115.7263168,97.31741892,157.3071778,,-28.93626407,-160.4969995,148.2248287,220.379659,,,,,,,,,,,,,,,,,,,,,,,,,,,,,,,
1.435249,1.874796,1.822308,-1.985021,0.1461319,-0.2614162,0.4559809,0.8380862,302.7853,325.7299,179.3079,,122.7853,145.7299,-0.6921,,-4.647724752,151.0271416,-11.60201188,,-32.1415339,-173.6086759,158.7267522,237.4178436,,-21.37433674,-169.8845564,156.6913395,232.0986873,,,,,,,,,,,,,,,,,,,,,,,,,,,,,,,
1.447088,1.872969,1.82377,-1.993941,0.1401339,-0.269349,0.4602806,0.8342394,302.4929,323.3851,181.5085,,122.4929,143.3851,1.5085,,-4.355324752,148.6823416,-9.401411881,,-22.26894479,-217.4272107,206.7419736,300.8533554,,-12.40117624,-180.2779039,166.1514553,245.4795672,,,,,,,,,,,,,,,,,,,,,,,,,,,,,,,
1.458328,1.87044,1.824409,-2.003133,0.1328737,-0.2780074,0.4648255,0.8300565,302.2699,320.7235,184.0668,,122.2699,140.7235,4.0668,,-4.132324752,146.0207416,-6.843111881,,-14.93415031,-239.4830797,230.7659462,332.9085403,,-1.085157268,-194.2874219,180.1838057,264.9811007,,,,,,,,,,,,,,,,,,,,,,,,,,,,,,,
1.480126,1.865775,1.825735,-2.020926,0.1183694,-0.2947688,0.4733259,0.821622,302.0513,315.4447,189.1659,,122.0513,135.4447,9.1659,,-3.913724752,140.7419416,-1.744011881,,-4.661658798,-247.2843181,240.3198436,344.8548858,,13.1779908,-211.12876,198.1520211,289.8503687,,,,,,,,,,,,,,,,,,,,,,,,,,,,,,,
1.502817,1.860238,1.825432,-2.039603,0.1022863,-0.3122936,0.4825398,0.8118901,302.0673,309.7175,194.7641,,122.0673,129.7175,14.7641,,-3.929724752,135.0147416,3.854188119,,9.5044209,-265.5748439,257.3827039,369.9543053,,27.55702344,-225.8890222,214.2722185,312.5665105,,,,,,,,,,,,,,,,,,,,,,,,,,,,,,,
1.52437,1.85434,1.823623,-2.05839,0.085576,-0.3311925,0.4912957,0.8010099,302.4618,303.7096,200.5414,,122.4618,123.7096,20.5414,,-4.324224752,129.0068416,9.631488119,,30.40382141,-274.2101199,261.7234288,380.2824416,,40.19673923,-233.9381657,223.4875989,326.0207817,,,,,,,,,,,,,,,,,,,,,,,,,,,,,,,
1.546655,1.847812,1.820394,-2.076474,0.067798,-0.3515307,0.4984501,0.7895423,303.409,297.7,206.2329,,123.409,117.7,26.2329,,-5.271424752,122.9972416,15.32298812,,51.44197024,-269.4981802,251.0398399,371.8824366,,51.81705257,-234.885917,225.6117011,329.7833238,,,,,,,,,,,,,,,,,,,,,,,,,,,,,,,
1.558023,1.844146,1.817954,-2.085349,0.05862515,-0.3628281,0.5015053,0.7832058,304.0954,294.6383,209.0372,,124.0954,114.6383,29.0372,,-5.957824752,119.9355416,18.12728812,,69.1498902,-274.7297226,253.7466562,380.3228804,,61.03448128,-228.7878837,220.1795372,323.3390361,,,,,,,,,,,,,,,,,,,,,,,,,,,,,,,
1.579934,1.836687,1.812185,-2.102692,0.03823203,-0.3859718,0.5081469,0.7689933,305.8027,288.5003,214.7518,,125.8027,108.5003,34.7518,,-7.665124752,113.7975416,23.84188812,,97.59405194,-291.1496408,281.3245712,416.4567524,,65.46870814,-214.8180094,205.5150664,304.4164441,,,,,,,,,,,,,,,,,,,,,,,,,,,,,,,
1.601679,1.829545,1.806102,-2.118511,0.01003912,-0.4110882,0.5165985,0.7510204,308.3527,281.9297,221.3153,,128.3527,101.9297,41.3153,,-10.21512475,107.2269416,30.40538812,,130.413004,-287.3893751,288.1438622,427.3489089,,66.81308703,-196.4158502,185.8918758,278.5659066,,,,,,,,,,,,,,,,,,,,,,,,,,,,,,,
1.623744,1.822868,1.799886,-2.131465,-0.02024629,-0.4367219,0.5245196,0.7305774,311.5203,275.9145,227.371,,131.5203,95.9145,47.371,,-13.38272475,101.2117416,36.46108812,,134.1497842,-226.0765444,224.29207,345.5628759,,67.69557793,-177.027736,165.5802125,251.6710499,,,,,,,,,,,,,,,,,,,,,,,,,,,,,,,
1.634883,1.81978,1.796634,-2.136575,-0.03169688,-0.4468839,0.5263593,0.7226591,312.9098,273.9146,229.3107,,132.9098,93.9146,49.3107,,-14.77222475,99.21184158,38.40078812,,117.2922953,-159.0381266,153.8137192,250.4181871,,67.15274317,-155.230191,143.2182791,221.6244088,,,,,,,,,,,,,,,,,,,,,,,,,,,,,,,
1.646262,1.816758,1.793804,-2.141019,-0.0415493,-0.4555551,0.5275023,0.7158803,314.1597,272.3382,230.8297,,134.1597,92.3382,50.8297,,-16.02212475,97.63544158,39.91978812,,107.678733,-128.0470835,124.9307478,208.8024351,,64.52664197,-132.4536643,120.3128684,190.2178935,,,,,,,,,,,,,,,,,,,,,,,,,,,,,,,
1.668058,1.811232,1.788639,-2.148242,-0.0595217,-0.4703515,0.5293269,0.7035906,316.4595,269.7759,233.3661,,136.4595,89.7759,53.3661,,-18.32192475,95.07314158,42.45618812,,87.68503941,-94.33424275,88.10862151,156.0472514,,59.61657984,-109.5560102,97.59923417,158.3738188,,,,,,,,,,,,,,,,,,,,,,,,,,,,,,,
1.69045,1.806193,1.784715,-2.152958,-0.07000709,-0.4810882,0.5294678,0.69521,318.0237,268.1836,234.7062,,138.0237,88.1836,54.7062,,-19.88612475,93.48084158,43.79628812,,35.37600438,-35.81884523,16.10385322,52.85627161,,52.11230789,-84.18880584,72.67750174,122.8229088,,,,,,,,,,,,,,,,,,,,,,,,,,,,,,,
1.701825,1.804601,1.783999,-2.152583,-0.0681347,-0.4826224,0.5281082,0.6953669,318.0339,268.1776,234.3918,,138.0339,88.1776,54.3918,,-19.89632475,93.47484158,43.48188812,,2.542775246,-0.255009499,-24.33553203,24.46934521,,41.12158595,-53.68979503,42.43901287,79.84139738,,,,,,,,,,,,,,,,,,,,,,,,,,,,,,,
1.713284,1.803321,1.7836,-2.15194,-0.06697123,-0.4839507,0.5268987,0.6954742,318.0819,268.1778,234.1508,,138.0819,88.1778,54.1508,,-19.94432475,93.47504158,43.24088812,,6.810722838,4.76116623,-23.73178,25.14462232,,26.82930116,-20.5795184,9.247897557,35.0549795,,,,,,,,,,,,,,,,,,,,,,,,,,,,,,,
1.73542,1.800821,1.78338,-2.149587,-0.06567548,-0.4863074,0.5234543,0.6965541,318.2907,268.3882,233.5657,,138.2907,88.3882,53.5657,,-20.15312475,93.68544158,42.65578812,,2.447569026,17.79324143,-33.32242988,37.8546479,,11.94311997,8.819841546,-19.7799324,24.73203278,,,,,,,,,,,,,,,,,,,,,,,,,,,,,,,
1.746792,1.800343,1.784227,-2.146509,-0.06392599,-0.486353,0.5215563,0.6981069,318.2391,268.6848,233.1084,,138.2391,88.6848,53.1084,,-20.10152475,93.98204158,42.19848812,,-3.735494209,21.88472733,-36.04690992,42.33526807,,-1.915488082,34.79237116,-44.89176639,56.82824012,,,,,,,,,,,,,,,,,,,,,,,,,,,,,,,
1.768711,1.799929,1.786738,-2.139249,-0.06102472,-0.4868678,0.5186431,0.700175,318.1748,269.0725,232.4096,,138.1748,89.0725,52.4096,,-20.03722475,94.36974158,41.49968812,,-12.38883734,28.1713231,-44.23740527,53.88928243,,-14.73482672,60.65652756,-70.12777721,93.88415516,,,,,,,,,,,,,,,,,,,,,,,,,,,,,,,
1.780055,1.800518,1.78912,-2.133772,-0.05754641,-0.4859666,0.5167242,0.7025105,317.927,269.511,231.7676,,137.927,89.511,51.7676,,-19.78942475,94.80824158,40.85768812,,-28.40564522,55.04393389,-70.23586544,93.64716831,,-25.65290784,86.1337819,-94.99018584,130.7678687,,,,,,,,,,,,,,,,,,,,,,,,,,,,,,,
1.802273,1.801875,1.79387,-2.121683,-0.04840446,-0.4810552,0.5114301,0.7104099,317.1501,271.0981,229.904,,137.1501,91.0981,49.904,,-19.01252475,96.39534158,38.99408812,,-45.28533323,105.3374997,-111.7757842,160.1267503,,-32.59306975,109.6249595,-117.1597091,163.7264101,,,,,,,,,,,,,,,,,,,,,,,,,,,,,,,
1.813855,1.80348,1.797212,-2.11312,-0.04156472,-0.4753233,0.5068657,0.7179327,316.5061,272.7108,228.2863,,136.5061,92.7108,48.2863,,-18.36852475,98.00804158,37.37638812,,-55.38669828,143.0442211,-143.3406368,209.9425485,,-36.23110929,132.1641868,-137.7723974,194.3226673,,,,,,,,,,,,,,,,,,,,,,,,,,,,,,,
1.835577,1.806488,1.802933,-2.0975,-0.02815627,-0.4638776,0.4982736,0.7319483,315.3077,275.9006,225.093,,135.3077,95.9006,45.093,,-17.17012475,101.1978416,34.18308812,,-59.3705713,156.1151349,-153.0697194,226.5549361,,-38.4109573,154.1849227,-157.6727924,223.8506232,,,,,,,,,,,,,,,,,,,,,,,,,,,,,,,
1.857922,1.810835,1.808471,-2.079757,-0.01282697,-0.4492627,0.4902868,0.7467378,313.8872,279.5961,221.5372,,133.8872,99.5961,41.5372,,-15.74962475,104.8933416,30.62728812,,-62.8696094,178.6047584,-172.6401227,256.2359449,,-38.85551856,174.3176775,-175.3206413,250.2673197,,,,,,,,,,,,,,,,,,,,,,,,,,,,,,,
1.879869,1.8152,1.813299,-2.061884,0.003959296,-0.4331866,0.4813567,0.7619905,312.5228,283.8061,217.4518,,132.5228,103.8061,37.4518,,-14.38522475,109.1033416,26.54188812,,-58.97266924,208.1869496,-203.1373928,296.7901314,,-37.83508608,193.2624521,-191.2379787,274.5065275,,,,,,,,,,,,,,,,,,,,,,,,,,,,,,,
1.901557,1.820656,1.81825,-2.042347,0.02237053,-0.415502,0.4708064,0.7779453,311.3131,288.6761,212.6777,,131.3131,108.6761,32.6777,,-13.17552475,113.9733416,21.76778812,,-54.25001513,236.8700637,-235.1026908,338.1179771,,-34.91170664,209.2259698,-203.75885,294.1292278,,,,,,,,,,,,,,,,,,,,,,,,,,,,,,,
1.912943,1.82373,1.820088,-2.0324,0.0333362,-0.4055043,0.4647222,0.7864402,310.7128,291.5134,209.8303,,130.7128,111.5134,29.8303,,-12.57522475,116.8106416,18.92038812,,-54.84610057,269.5664631,-272.0999493,386.927067,,-29.2464989,221.9938931,-213.6781524,309.5076721,,,,,,,,,,,,,,,,,,,,,,,,,,,,,,,
1.934953,1.829904,1.82266,-2.012625,0.05882795,-0.3827761,0.4525665,0.8032467,309.4589,297.895,203.3567,,129.4589,117.895,23.3567,,-11.32132475,123.1922416,12.44678812,,-44.75173867,292.7549456,-292.3004801,416.1102582,,-21.35541835,231.1104174,-221.3089732,320.6957133,,,,,,,,,,,,,,,,,,,,,,,,,,,,,,,
1.956844,1.835348,1.823698,-1.99391,0.08176014,-0.3595966,0.4405072,0.8185102,308.7467,304.3653,196.9978,,128.7467,124.3653,16.9978,,-10.60912475,129.6625416,6.087888119,,-21.52730139,291.030733,-282.4369146,406.1193457,,-12.65936895,234.9497025,-224.0788685,324.9199311,,,,,,,,,,,,,,,,,,,,,,,,,,,,,,,
1.96806,1.838253,1.823988,-1.984549,0.09205028,-0.347975,0.4342326,0.8257616,308.6287,307.5786,193.9202,,128.6287,127.5786,13.9202,,-10.49112475,132.8758416,3.010288119,,-3.331727306,279.519054,-262.7444661,383.636099,,-3.742952237,234.9432047,-222.7553835,323.7781339,,,,,,,,,,,,,,,,,,,,,,,,,,,,,,,
1.979519,1.841034,1.823688,-1.975328,0.1009613,-0.3363011,0.4279666,0.8327983,308.6729,310.7017,191.0429,,128.6729,130.7017,11.0429,,-10.53532475,135.9989416,0.132988119,,9.530128073,268.1667968,-242.9722957,361.994186,,5.808565268,231.3167064,-217.7871355,317.7615372,,,,,,,,,,,,,,,,,,,,,,,,,,,,,,,
2.001462,1.846147,1.821996,-1.957565,0.1162665,-0.3135606,0.4164604,0.8454127,309.0065,316.49,185.8896,,129.0065,136.49,5.8896,,-10.86892475,141.7872416,-5.020311881,,25.61509535,235.6970541,-207.008732,314.7409245,,15.22923232,224.6538539,-209.7772571,307.7462935,,,,,,,,,,,,,,,,,,,,,,,,,,,,,,,
2.013242,1.848301,1.819803,-1.949401,0.1218028,-0.3037724,0.4102204,0.8512377,309.4309,318.9356,183.779,,129.4309,138.9356,3.779,,-11.29332475,144.2328416,-7.130911881,,45.24205536,221.0269366,-199.1867962,300.9570236,,23.97535275,214.670624,-197.9673033,293.000593,,,,,,,,,,,,,,,,,,,,,,,,,,,,,,,
2.035017,1.851908,1.815727,-1.933764,0.1364384,-0.2838928,0.394887,0.8630491,310.6167,324.0407,179.0058,,130.6167,144.0407,-0.9942,,-12.47912475,149.3379416,-11.90411188,,57.29871397,223.8523148,-210.9764551,312.8962545,,31.52296143,199.088463,-179.5527203,269.9427579,,,,,,,,,,,,,,,,,,,,,,,,,,,,,,,
2.046264,1.854119,1.813857,-1.925609,0.1439238,-0.274188,0.3871295,0.8684686,311.2931,326.4392,176.7255,,131.2931,146.4392,-3.2745,,-13.15552475,151.7364416,-14.18441188,,57.66194391,192.9549282,-179.3492755,269.6714051,,36.58800346,179.6375202,-157.2721383,241.5426384,,,,,,,,,,,,,,,,,,,,,,,,,,,,,,,
2.068537,1.857552,1.808395,-1.911524,0.1551194,-0.2572159,0.3746215,0.8771754,312.5222,330.2847,173.252,,132.5222,150.2847,-6.748,,-14.38462475,155.5819416,-17.65791188,,56.54284594,156.0306625,-135.8644149,214.4803028,,38.16036964,160.4726196,-136.4092881,214.0447834,,,,,,,,,,,,,,,,,,,,,,,,,,,,,,,
2.090847,1.860469,1.802566,-1.899204,0.1627625,-0.2420013,0.3632201,0.8848813,313.814,333.3949,170.669,,133.814,153.3949,-9.331,,-15.67642475,158.6921416,-20.24091188,,61.30011817,131.4602814,-108.0528988,180.872715,,37.02609017,142.5340437,-118.1458503,188.7997005,,,,,,,,,,,,,,,,,,,,,,,,,,,,,,,
2.113095,1.861892,1.796261,-1.88994,0.1694166,-0.2276772,0.3512716,0.8922272,315.2534,336.1428,168.4369,,135.2534,156.1428,-11.5631,,-17.11582475,161.4400416,-22.47301188,,63.49600241,121.5698665,-99.00897373,169.1559979,,34.53646579,125.2951321,-101.9425742,165.1784672,,,,,,,,,,,,,,,,,,,,,,,,,,,,,,,
2.124263,1.863014,1.793499,-1.884734,0.1729784,-0.2204507,0.3456097,0.8955635,315.9491,337.4788,167.3459,,135.9491,157.4788,-12.6541,,-17.81152475,162.7760416,-23.56401188,,59.4495505,107.0880755,-81.57329078,147.1608193,,29.80374439,108.3454774,-87.31051309,142.3029562,,,,,,,,,,,,,,,,,,,,,,,,,,,,,,,
2.146496,1.864354,1.787841,-1.878009,0.1767152,-0.2078793,0.3360516,0.9014584,317.2076,339.5809,165.8906,,137.2076,159.5809,-14.1094,,-19.07002475,164.8781416,-25.01931188,,43.27281228,66.99836985,-32.71037007,86.20490796,,22.08612994,88.61550575,-70.11464473,115.1371721,,,,,,,,,,,,,,,,,,,,,,,,,,,,,,,
2.16871,1.865264,1.783921,-1.875539,0.1734772,-0.2006766,0.3320589,0.9051914,317.8727,340.4572,165.8914,,137.8727,160.4572,-14.1086,,-19.73512475,165.7544416,-25.01851188,,21.09380769,39.89268965,-2.65291403,45.20412994,,11.42684187,64.4624226,-47.68940232,80.99540565,,,,,,,,,,,,,,,,,,,,,,,,,,,,,,,
2.19065,1.86609,1.781205,-1.874812,0.1715853,-0.1938884,0.3310307,0.9074053,318.1414,341.3422,165.7742,,138.1414,161.3422,-14.2258,,-20.00382475,166.6394416,-25.13571188,,-1.08654102,41.88702424,-11.21986225,43.37728299,,-1.240128315,37.50331493,-22.55125503,43.77894074,,,,,,,,,,,,,,,,,,,,,,,,,,,,,,,
2.212758,1.867562,1.781603,-1.877114,0.1720733,-0.1875471,0.3344053,0.9074084,317.8226,342.3025,165.3962,,137.8226,162.3025,-14.6038,,-19.68502475,167.5997416,-25.51371188,,-18.07736043,46.31756727,-25.31977489,55.79604823,,-13.5266595,9.494207677,2.915753185,16.78130249,,,,,,,,,,,,,,,,,,,,,,,,,,,,,,,
2.234838,1.867706,1.783255,-1.882324,0.175127,-0.1814037,0.3387157,0.9064739,317.3427,343.3888,164.6556,,137.3427,163.3888,-15.3444,,-19.20512475,168.6860416,-26.25431188,,-22.83498884,44.06094613,-32.32970593,59.22848618,,-24.89511829,-17.11103228,26.72506027,40.33340039,,,,,,,,,,,,,,,,,,,,,,,,,,,,,,,
2.246227,1.86714,1.78381,-1.885941,0.1768116,-0.1791234,0.3410282,0.905733,317.0701,343.8321,164.3012,,137.0701,163.8321,-15.6988,,-18.93252475,169.1293416,-26.60871188,,-35.91028284,15.35154321,-16.79193804,42.51102769,,-35.90331315,-42.74012806,49.58416082,74.66160624,,,,,,,,,,,,,,,,,,,,,,,,,,,,,,,
2.268002,1.865758,1.788329,-1.896892,0.1785011,-0.1813689,0.3490211,0.9019018,316.0274,343.6531,164.2475,,136.0274,163.6531,-15.7525,,-17.88982475,168.9503416,-26.66241188,,-55.0869325,-35.46269457,24.35949254,69.89676469,,-46.35095754,-66.89897311,70.6902176,107.8006991,,,,,,,,,,,,,,,,,,,,,,,,,,,,,,,
2.279773,1.865138,1.7911,-1.903476,0.1765653,-0.1857601,0.3546992,0.8991698,315.2942,342.915,164.85,,135.2942,162.915,-15.15,,-17.15662475,168.2122416,-26.05991188,,-81.27203094,-90.13776617,80.55169617,145.6658356,,-54.83934795,-86.55496312,86.49731525,134.092883,,,,,,,,,,,,,,,,,,,,,,,,,,,,,,,
2.301309,1.86429,1.797307,-1.917338,0.1679701,-0.1989562,0.3720189,0.8909571,313.1351,340.383,167.2172,,133.1351,160.383,-12.7828,,-14.99752475,165.6802416,-23.69271188,,-107.0086685,-157.5134715,147.4466393,240.8357537,,-60.21013443,-101.1052947,96.60708206,152.2513357,,,,,,,,,,,,,,,,,,,,,,,,,,,,,,,
2.31271,1.863448,1.800566,-1.925614,0.1604355,-0.2096844,0.3827752,0.8853113,311.8381,338.1318,169.3261,,131.8381,158.1318,-10.6739,,-13.70052475,163.4290416,-21.58381188,,-103.1820594,-208.0877318,195.2066919,303.4018689,,-62.32526937,-113.4040838,104.77447,166.501096,,,,,,,,,,,,,,,,,,,,,,,,,,,,,,,
2.334757,1.861982,1.806802,-1.943239,0.1450013,-0.2308396,0.4009763,0.8745889,309.7965,333.3097,173.8554,,129.7965,153.3097,-6.1446,,-11.65892475,158.6069416,-17.05451188,,-86.48984612,-214.407838,201.4680934,306.6604101,,-62.48077116,-127.12645,115.1418872,182.5448856,,,,,,,,,,,,,,,,,,,,,,,,,,,,,,,
2.346147,1.861683,1.809918,-1.952328,0.1379438,-0.2405743,0.4096878,0.8690521,308.881,330.9167,176.1049,,128.881,150.9167,-3.8951,,-10.74342475,156.2139416,-14.80501188,,-79.61053078,-211.6083787,198.1593334,300.637762,,-61.54118749,-144.0360919,129.3748301,203.1540307,,,,,,,,,,,,,,,,,,,,,,,,,,,,,,,
2.368197,1.860418,1.815158,-1.971121,0.1256654,-0.2583708,0.4269887,0.8573992,307.1425,326.2174,180.4889,,127.1425,146.2174,0.4889,,-9.004924752,151.5146416,-10.42101188,,-76.3698266,-206.9769101,192.8054473,292.9944235,,-57.8814998,-163.5252707,147.2255594,227.5217517,,,,,,,,,,,,,,,,,,,,,,,,,,,,,,,
2.390029,1.859308,1.81916,-1.990353,0.1160285,-0.2732373,0.443735,0.8455638,305.5292,321.8328,184.5669,,125.5292,141.8328,4.5669,,-7.391624752,147.1300416,-6.343011881,,-67.07626302,-188.5295003,172.7818994,264.3788613,,-50.56009512,-183.1815837,166.231418,252.477128,,,,,,,,,,,,,,,,,,,,,,,,,,,,,,,
2.401495,1.85855,1.821175,-2.000021,0.1124464,-0.2798198,0.4511077,0.8399754,304.8383,319.8122,186.3874,,124.8383,139.8122,6.3874,,-6.700724752,145.1094416,-4.522511881,,-48.72641658,-149.261621,128.7740544,203.0666203,,-38.94590623,-201.5370337,184.2723424,275.8446225,,,,,,,,,,,,,,,,,,,,,,,,,,,,,,,
2.423524,1.855728,1.822749,-2.020004,0.109716,-0.2892676,0.4597254,0.8324298,304.0189,317.1181,188.5633,,124.0189,137.1181,8.5633,,-5.881324752,142.4153416,-2.346611881,,-28.58329524,-117.9972334,94.95618084,154.1331507,,-22.68055379,-216.9110214,199.6044166,295.6462783,,,,,,,,,,,,,,,,,,,,,,,,,,,,,,,
2.434921,1.853978,1.822745,-2.029825,0.1081166,-0.2940081,0.4627332,0.8293058,303.7913,315.8223,189.602,,123.7913,135.8223,9.602,,-5.653724752,141.1195416,-1.307911881,,-20.09888372,-132.0731945,109.4566488,172.7079957,,-3.987425189,-225.3861474,207.8912042,306.6489324,,,,,,,,,,,,,,,,,,,,,,,,,,,,,,,
2.457153,1.850101,1.822691,-2.050107,0.1027724,-0.3055151,0.4701889,0.8215965,303.3416,312.4775,192.4427,,123.3416,132.4775,12.4427,,-5.204024752,137.7747416,1.532788119,,-10.62040109,-175.7643984,152.6985522,233.0724448,,14.08421352,-227.1563722,209.3878275,309.2598338,,,,,,,,,,,,,,,,,,,,,,,,,,,,,,,
2.479952,1.844861,1.819926,-2.070775,0.09293581,-0.3214014,0.4775104,0.8124333,303.3185,307.8931,196.4923,,123.3185,127.8931,16.4923,,-5.180924752,133.1903416,5.582388119,,11.66565708,-238.0077804,215.2675428,321.1291112,,30.08113385,-224.1243529,205.8394573,305.7882966,,,,,,,,,,,,,,,,,,,,,,,,,,,,,,,
2.501234,1.839311,1.815914,-2.091577,0.07747979,-0.3415573,0.4854166,0.8010657,303.8366,302.0419,201.8748,,123.8366,122.0419,21.8748,,-5.699024752,127.3391416,10.96488812,,40.09132834,-290.9947644,271.4356547,399.953225,,43.48519074,-216.530945,197.0494504,295.9815837,,,,,,,,,,,,,,,,,,,,,,,,,,,,,,,
2.512676,1.836298,1.812796,-2.101526,0.06646312,-0.3540489,0.4893634,0.7942012,304.4755,298.5286,205.1925,,124.4755,118.5286,25.1925,,-6.337924752,123.8258416,14.28258812,,69.71242467,-328.7586161,315.0837129,460.6731986,,54.02204572,-206.3526081,185.7233472,282.8302353,,,,,,,,,,,,,,,,,,,,,,,,,,,,,,,
2.534646,1.831136,1.806373,-2.120387,0.03940022,-0.3814763,0.4991917,0.7770013,306.3119,290.8289,212.6669,,126.3119,110.8289,32.6669,,-8.174324752,116.1261416,21.75698812,,104.4409132,-357.3753113,346.7636043,508.7927031,,61.01825856,-196.0038704,175.1230663,269.8311202,,,,,,,,,,,,,,,,,,,,,,,,,,,,,,,
2.55701,1.824839,1.798631,-2.138891,0.007271898,-0.4128131,0.5102307,0.7544516,309.114,282.682,220.5685,,129.114,102.682,40.5685,,-10.97642475,107.9792416,29.65858812,,139.8286125,-318.2643692,302.9349303,461.1006631,,65.39353155,-186.9750711,166.217462,258.5811978,,,,,,,,,,,,,,,,,,,,,,,,,,,,,,,
2.578777,1.81717,1.789047,-2.155859,-0.02137643,-0.4415811,0.5150597,0.7343451,312.474,276.7561,226.0658,,132.474,96.7561,46.0658,,-14.33642475,102.0533416,35.15588812,,148.4414571,-237.4207609,220.9241961,356.6664889,,69.2018417,-176.9473666,156.6087229,246.2225773,,,,,,,,,,,,,,,,,,,,,,,,,,,,,,,
2.601246,1.810457,1.779532,-2.170475,-0.04696908,-0.4656681,0.519035,0.7152271,315.6763,272.2039,230.3191,,135.6763,92.2039,50.3191,,-17.53872475,97.50114158,39.40918812,,128.3494335,-172.1921273,152.0305203,263.1292171,,71.01426399,-162.2980349,143.0730691,227.7138137,,,,,,,,,,,,,,,,,,,,,,,,,,,,,,,
2.623407,1.805631,1.770726,-2.180589,-0.06393805,-0.4850249,0.5204372,0.6998628,318.2066,269.0618,232.8624,,138.2066,89.0618,52.8624,,-20.06902475,94.35904158,41.95248812,,97.88291291,-108.262608,78.53535836,165.739734,,70.71022367,-142.6055271,124.4280452,202.0361614,,,,,,,,,,,,,,,,,,,,,,,,,,,,,,,
2.635046,1.803671,1.767096,-2.183762,-0.06886541,-0.4923788,0.5191314,0.6952146,319.1562,268.1919,233.3548,,139.1562,88.1919,53.3548,,-21.01862475,93.48914158,42.44488812,,69.90285177,-56.21112056,25.54255753,93.26586196,,69.09736835,-119.5897288,101.7363969,171.5413769,,,,,,,,,,,,,,,,,,,,,,,,,,,,,,,
2.657144,1.798774,1.759549,-2.190419,-0.07426983,-0.5023084,0.5152159,0.6904512,320.4427,267.3592,233.5488,,140.4427,87.3592,53.5488,,-22.30512475,92.65644158,42.63888812,,42.22435029,-14.72803046,-9.029596677,45.62175199,,63.92289427,-92.5745661,73.66701048,134.4731019,,,,,,,,,,,,,,,,,,,,,,,,,,,,,,,
2.679366,1.795779,1.754296,-2.192088,-0.07511715,-0.5064629,0.5100647,0.6911488,321.0256,267.542,232.9524,,141.0256,87.542,52.9524,,-22.88802475,92.83924158,42.04248812,,28.29525365,-0.622842294,-20.81667517,35.13322184,,52.11101687,-59.49133589,38.82206127,88.10181364,,,,,,,,,,,,,,,,,,,,,,,,,,,,,,,
2.701326,1.793291,1.750695,-2.191977,-0.0763833,-0.5120899,0.5059779,0.6898666,321.6923,267.334,232.6275,,141.6923,87.334,52.6275,,-23.55472475,92.63124158,41.71758812,,29.40914828,-1.713037118,-15.45695944,33.26785376,,34.02413132,-25.95607465,4.438534904,43.02394584,,,,,,,,,,,,,,,,,,,,,,,,,,,,,,,
2.723474,1.791601,1.749557,-2.189298,-0.07874155,-0.5156022,0.5016348,0.690157,322.3226,267.4679,232.2705,,142.3226,87.4679,52.2705,,-24.18502475,92.76514158,41.36058812,,12.94108864,14.67691438,-23.26494693,30.3996932,,12.83815577,5.915996046,-27.55801595,30.97194692,,,,,,,,,,,,,,,,,,,,,,,,,,,,,,,
2.745831,1.790996,1.752465,-2.182505,-0.07655521,-0.5151744,0.4984688,0.6930104,322.265,267.989,231.5906,,142.265,87.989,51.5906,,-24.12742475,93.28624158,40.68068812,,7.713132897,17.99482096,-27.11776844,33.44666449,,-5.982789909,35.816295,-56.21534039,66.92357774,,,,,,,,,,,,,,,,,,,,,,,,,,,,,,,
2.7678,1.791807,1.756662,-2.173504,-0.07704445,-0.5174587,0.494221,0.6942955,322.6605,268.2676,231.0672,,142.6605,88.2676,51.0672,,-24.52292475,93.56484158,40.15728812,,19.12420926,8.210614076,-23.55577282,31.43284901,,-19.30236361,60.9416985,-78.17487968,100.9840763,,,,,,,,,,,,,,,,,,,,,,,,,,,,,,,
2.779111,1.792163,1.759012,-2.16859,-0.07704813,-0.5193164,0.4920067,0.6944807,322.8895,268.3099,230.8038,,142.8895,88.3099,50.8038,,-24.75192475,93.60714158,39.89388812,,2.444261516,22.43849836,-49.81831111,54.69300453,,-29.28789362,82.32273335,-96.09455069,129.8806214,,,,,,,,,,,,,,,,,,,,,,,,,,,,,,,
2.801322,1.795358,1.767472,-2.153978,-0.06851766,-0.5195379,0.4852409,0.6999479,322.5484,269.2236,229.108,,142.5484,89.2236,49.108,,-24.41082475,94.52084158,38.19808812,,-49.11349295,72.70668139,-106.2207354,137.7724259,,-36.9050351,101.491474,-112.4114957,155.8808689,,,,,,,,,,,,,,,,,,,,,,,,,,,,,,,
2.812898,1.797941,1.772427,-2.145286,-0.05803882,-0.5147302,0.481776,0.7068071,321.5891,270.4307,227.5326,,141.5891,90.4307,47.5326,,-23.45152475,95.72794158,36.62268812,,-95.30089967,117.694027,-144.0509125,209.0091167,,-43.01145784,121.7121065,-130.08133,183.2620386,,,,,,,,,,,,,,,,,,,,,,,,,,,,,,,
2.836307,1.803291,1.782113,-2.126605,-0.03333202,-0.4998923,0.4764954,0.7224603,319.0672,273.4999,223.9742,,139.0672,93.4999,43.9742,,-20.92962475,98.79714158,33.06428812,,-126.9762251,176.9161582,-195.030965,292.3343395,,-47.76778457,143.6857762,-149.3384461,212.6718952,,,,,,,,,,,,,,,,,,,,,,,,,,,,,,,
2.852724,1.809472,1.791443,-2.106604,-0.00923811,-0.482814,0.4707269,0.7383911,316.6667,277.1563,220.0661,,136.6667,97.1563,40.0661,,-18.52912475,102.4535416,29.15618812,,-116.3228603,216.5117591,-220.5146974,330.2046054,,-49.58765409,165.6207436,-168.669064,241.5334745,,,,,,,,,,,,,,,,,,,,,,,,,,,,,,,
2.874824,1.815286,1.799578,-2.08469,0.01210514,-0.4630897,0.4620949,0.7562208,314.7567,281.804,215.5803,,134.7567,101.804,35.5803,,-16.61912475,107.1012416,24.67038812,,-75.27154521,218.3676375,-206.9386524,310.1190682,,-49.67727743,188.0168471,-188.8468238,271.0743248,,,,,,,,,,,,,,,,,,,,,,,,,,,,,,,
2.886136,1.81893,1.803337,-2.072398,0.02170939,-0.4528396,0.4568514,0.7653443,314.0314,284.3654,213.1946,,134.0314,104.3654,33.1946,,-15.89382475,109.6626416,22.28468812,,-59.9090384,221.7423325,-207.4131656,309.4817865,,-49.55490518,211.7792948,-210.1454529,302.4355629,,,,,,,,,,,,,,,,,,,,,,,,,,,,,,,
2.897495,1.822295,1.806947,-2.060844,0.03091742,-0.4430895,0.4518867,0.773637,313.3987,286.8309,210.8782,,133.3987,106.8309,30.8782,,-15.26112475,112.1281416,19.96828812,,-56.79848892,234.4655982,-221.1498822,327.272754,,-46.69752818,233.0135514,-227.8799863,329.2495443,,,,,,,,,,,,,,,,,,,,,,,,,,,,,,,
2.919479,1.829498,1.812283,-2.036299,0.05169112,-0.4211914,0.4415497,0.7905439,312.1259,292.3682,205.6378,,132.1259,112.3682,25.6378,,-13.98832475,117.6654416,14.72788812,,-51.08824191,262.2453798,-250.5245203,366.2583555,,-38.19309545,245.9238779,-236.61233,343.398691,,,,,,,,,,,,,,,,,,,,,,,,,,,,,,,
2.941821,1.836562,1.815948,-2.012003,0.07417165,-0.3978694,0.4300657,0.8069956,311.1366,298.4589,199.7691,,131.1366,118.4589,19.7691,,-12.99902475,123.7561416,8.859188119,,-32.42309926,283.9446687,-265.7994693,390.2885985,,-26.64882035,250.7223143,-237.46975,346.3577928,,,,,,,,,,,,,,,,,,,,,,,,,,,,,,,
2.963609,1.843632,1.816768,-1.987879,0.09398681,-0.3725306,0.418034,0.8231859,310.6885,304.8924,193.9098,,130.6885,124.8924,13.9098,,-12.55092475,130.1896416,2.999888119,,-10.71721513,299.8314912,-274.5629801,406.6922815,,-13.28402037,249.4982985,-232.8540959,341.5360832,,,,,,,,,,,,,,,,,,,,,,,,,,,,,,,
2.985612,1.850647,1.816098,-1.963926,0.1147363,-0.3460408,0.404921,0.8385287,310.6694,311.5898,187.7445,,130.6694,131.5898,7.7445,,-12.53182475,136.8870416,-3.165411881,,6.54802948,309.1441666,-289.4286449,423.5350434,,0.957757818,244.1362195,-225.2666344,332.1873982,,,,,,,,,,,,,,,,,,,,,,,,,,,,,,,
2.996984,1.853729,1.814683,-1.952634,0.1266797,-0.3319786,0.3974881,0.8460176,310.8282,315.1595,184.3482,,130.8282,135.1595,4.3482,,-12.69062475,140.4567416,-6.561711881,,20.71504859,317.1224341,-300.437951,437.3313548,,13.19715826,233.8788141,-214.2470825,317.4512199,,,,,,,,,,,,,,,,,,,,,,,,,,,,,,,
3.018953,1.858829,1.810536,-1.931171,0.1504406,-0.302998,0.3831048,0.8595293,311.4316,322.1971,177.7087,,131.4316,142.1971,-2.2913,,-13.29402475,147.4943416,-13.20121188,,39.59016243,298.4838333,-280.3672452,411.4192167,,23.05724159,219.175533,-199.9655205,297.5831985,,,,,,,,,,,,,,,,,,,,,,,,,,,,,,,
3.041148,1.864419,1.804406,-1.909775,0.1710992,-0.2762536,0.368423,0.8710187,312.5794,328.3368,171.971,,132.5794,148.3368,-8.029,,-14.44182475,153.6340416,-18.93891188,,61.44413253,240.5409269,-219.7412044,331.5441386,,32.18459907,206.1305451,-188.2442762,281.0009921,,,,,,,,,,,,,,,,,,,,,,,,,,,,,,,
3.063475,1.869123,1.796677,-1.89093,0.1848572,-0.2543907,0.3537566,0.8808913,314.1685,332.9017,167.9305,,134.1685,152.9017,-12.0695,,-16.03092475,158.1989416,-22.97941188,,54.77467664,180.0736992,-155.1973724,243.9529191,,42.23466922,196.2976939,-178.6413796,268.7550826,,,,,,,,,,,,,,,,,,,,,,,,,,,,,,,
3.085721,1.873292,1.788196,-1.873729,0.195312,-0.2363147,0.3466022,0.8864962,315.0222,336.3652,165.0513,,135.0222,156.3652,-14.9487,,-16.88462475,161.6624416,-25.85861188,,46.76617471,161.0039532,-135.0274612,215.2713714,,51.09175133,186.4083739,-168.3870212,256.3447636,,,,,,,,,,,,,,,,,,,,,,,,,,,,,,,
3.097065,1.875752,1.784348,-1.864372,0.2013039,-0.2262087,0.3416856,0.8896951,315.6479,338.2519,163.456,,135.6479,158.2519,-16.544,,-17.51032475,163.5491416,-27.45391188,,68.82025607,146.8047318,-121.8776986,202.834983,,57.03314839,174.5605346,-156.8753639,241.5244088,,,,,,,,,,,,,,,,,,,,,,,,,,,,,,,
3.11917,1.878662,1.775289,-1.849301,0.2091703,-0.2097197,0.3278508,0.8970949,317.4712,341.0657,161.1764,,137.4712,161.0657,-18.8236,,-19.33362475,166.3629416,-29.73351188,,83.84066049,85.02136748,-63.68447681,135.3277572,,60.75917972,160.8369982,-142.8625472,223.5395385,,,,,,,,,,,,,,,,,,,,,,,,,,,,,,,
3.130398,1.879726,1.770361,-1.843132,0.2091855,-0.205938,0.3205697,0.900592,318.4278,341.5457,160.9042,,138.4278,161.5457,-19.0958,,-20.29022475,166.8429416,-30.00571188,,68.27204498,30.59967844,-21.75285985,77.91405109,,62.61300706,145.2621152,-126.4341504,202.5020127,,,,,,,,,,,,,,,,,,,,,,,,,,,,,,,
3.152643,1.881943,1.76073,-1.831185,0.2105471,-0.202888,0.3113763,0.9041854,319.57,341.9561,160.4757,,139.57,161.9561,-19.5243,,-21.43242475,167.2533416,-30.43421188,,61.8571583,64.88075541,-68.77370702,112.9851461,,60.30041549,129.4251554,-110.0823726,180.2918182,,,,,,,,,,,,,,,,,,,,,,,,,,,,,,,
3.174831,1.883657,1.753206,-1.821633,0.2236869,-0.1886619,0.2986186,0.908404,321.1757,344.4259,157.8512,,141.1757,164.4259,-22.1488,,-23.03812475,169.7231416,-33.05871188,,79.56267,134.4183147,-125.6868638,200.4886269,,52.79676286,114.2403524,-95.46231128,157.9601505,,,,,,,,,,,,,,,,,,,,,,,,,,,,,,,
3.186294,1.884038,1.750263,-1.818468,0.2306849,-0.176996,0.2917227,0.9112381,322.1702,346.2316,156.3256,,142.1702,166.2316,-23.6744,,-24.03262475,171.5288416,-34.58431188,,82.71896825,155.3835085,-132.4928105,220.319784,,44.21698377,99.57123813,-82.365104,136.5781222,,,,,,,,,,,,,,,,,,,,,,,,,,,,,,,
3.208682,1.884881,1.745058,-1.8133,0.2452192,-0.1543641,0.2803115,0.915131,323.9317,349.6624,153.3727,,143.9317,169.6624,-26.6273,,-25.79412475,174.9596416,-37.53721188,,66.52094662,145.8095799,-124.9114349,203.1953162,,34.25680148,81.44065278,-66.48790438,110.5746345,,,,,,,,,,,,,,,,,,,,,,,,,,,,,,,
3.231347,1.885859,1.74292,-1.811627,0.2590294,-0.1335323,0.2738832,0.9165484,325.1638,352.7987,150.6999,,145.1638,172.7987,-29.3001,,-27.02622475,178.0959416,-40.21001188,,54.9864368,130.7381933,-107.2620279,177.8233001,,19.64957341,59.4737404,-47.49348921,78.60574438,,,,,,,,,,,,,,,,,,,,,,,,,,,,,,,
3.242663,1.886003,1.7425,-1.811541,0.2645967,-0.123725,0.2707556,0.9172634,325.7931,354.1917,149.6068,,145.7931,174.1917,-30.3932,,-27.65552475,179.4889416,-41.30311188,,44.81480398,114.6489554,-86.86879248,150.6616632,,3.194699388,40.01511189,-31.29491026,50.89977104,,,,,,,,,,,,,,,,,,,,,,,,,,,,,,,
3.254054,1.886168,1.743052,-1.812713,0.2689012,-0.1152964,0.2695288,0.9174711,326.1806,355.4014,148.7281,,146.1806,175.4014,-31.2719,,-28.04302475,-179.3013584,-42.18181188,,9.526471952,92.60335625,-67.79413429,115.1615383,,-10.964854,24.76936016,-18.55338661,32.83256586,,,,,,,,,,,,,,,,,,,,,,,,,,,,,,,
3.276573,1.885336,1.746824,-1.819018,0.2750491,-0.1049434,0.2751974,0.9152056,325.8436,357.1806,147.4119,,145.8436,177.1806,-32.5881,,-27.70602475,-177.5221584,-43.49801188,,-36.10335157,43.13848705,-29.68040696,63.60273278,,-24.31215087,7.131357027,-2.387251228,25.44869154,,,,,,,,,,,,,,,,,,,,,,,,,,,,,,,
3.299151,1.88271,1.752291,-1.8292,0.2741114,-0.1066271,0.2859208,0.9119994,324.5512,357.3447,147.3913,,144.5512,177.3447,-32.6087,,-26.41362475,-177.3580584,-43.51861188,,-56.7624516,-10.62478583,15.06632229,59.68128729,,-38.74134891,-15.93055622,18.58206412,45.82540609,,,,,,,,,,,,,,,,,,,,,,,,,,,,,,,
3.310586,1.881475,1.75544,-1.834244,0.2717536,-0.1097796,0.290622,0.9108443,323.9076,357.0186,147.7463,,143.9076,177.0186,-32.2537,,-25.77002475,-177.6841584,-43.16361188,,-82.71619509,-74.69365631,71.37613379,132.3467555,,-52.32430312,-40.94314918,40.73663297,77.9336091,,,,,,,,,,,,,,,,,,,,,,,,,,,,,,,
3.333102,1.876789,1.763044,-1.849695,0.2578013,-0.1299893,0.3066037,0.9069926,321.45,354.2971,150.2615,,141.45,174.2971,-29.7385,,-23.31242475,179.5943416,-40.64841188,,-121.0737088,-138.7651292,125.0496987,222.6028553,,-63.59400216,-66.34417142,63.72957564,111.835616,,,,,,,,,,,,,,,,,,,,,,,,,,,,,,,
3.344745,1.874628,1.767799,-1.857902,0.2496087,-0.1429388,0.3168515,0.9038081,319.9015,352.4731,151.8728,,139.9015,172.4731,-28.1272,,-21.76392475,177.7703416,-39.03711188,,-130.0727017,-167.9408032,146.8970495,258.266847,,-73.37380338,-92.74542035,88.0066793,147.4130375,,,,,,,,,,,,,,,,,,,,,,,,,,,,,,,
3.367311,1.87014,1.777064,-1.87616,0.2334506,-0.1693313,0.3359964,0.8966238,317.0323,348.4288,155.3796,,137.0323,168.4288,-24.6204,,-18.89472475,173.7260416,-35.53031188,,-115.802149,-167.595094,143.8869475,249.4027003,,-82.18696775,-121.3883523,114.3437904,185.9148519,,,,,,,,,,,,,,,,,,,,,,,,,,,,,,,
3.378753,1.86829,1.781678,-1.885174,0.2271532,-0.1803516,0.3442286,0.8929622,315.8371,346.6442,156.8942,,135.8371,166.6442,-23.1058,,-17.69952475,171.9414416,-34.01571188,,-111.657701,-164.4132853,141.386053,243.9040519,,-86.60321978,-151.3209779,141.8534629,224.7677934,,,,,,,,,,,,,,,,,,,,,,,,,,,,,,,
3.40112,1.863675,1.790647,-1.906781,0.2141515,-0.2027105,0.3634712,0.883706,313.1786,342.7779,160.2582,,133.1786,162.7779,-19.7418,,-15.04102475,168.0751416,-30.65171188,,-108.0169046,-165.3865575,146.9142357,246.1791172,,-84.53240417,-180.4091505,168.7674652,261.1046653,,,,,,,,,,,,,,,,,,,,,,,,,,,,,,,
3.412875,1.861741,1.795011,-1.9169,0.2079104,-0.2124368,0.3721019,0.8793088,312.0363,340.9216,161.9442,,132.0363,160.9216,-18.0558,,-13.89872475,166.2188416,-28.96571188,,-93.85943643,-169.7802,155.5165847,248.6369205,,-78.74673802,-207.4979136,194.346114,295.0031269,,,,,,,,,,,,,,,,,,,,,,,,,,,,,,,
3.434193,1.857224,1.802557,-1.938566,0.1952472,-0.2310482,0.3873134,0.8709096,310.1061,337.0493,165.5172,,130.1061,157.0493,-14.4828,,-11.96852475,162.3465416,-25.39271188,,-79.9851409,-184.4037091,173.9968197,265.8519212,,-69.5865032,-231.2234868,217.3257316,324.8646732,,,,,,,,,,,,,,,,,,,,,,,,,,,,,,,
3.44587,1.85418,1.805095,-1.95049,0.1877089,-0.2405474,0.3942904,0.8668549,309.2954,334.8638,167.6236,,129.2954,154.8638,-12.3764,,-11.15782475,160.1610416,-23.28631188,,-72.15097917,-212.4780429,208.3403196,306.1998878,,-55.01582082,-250.7381465,236.4991535,349.0389781,,,,,,,,,,,,,,,,,,,,,,,,,,,,,,,
3.467649,1.850441,1.810741,-1.972887,0.1697029,-0.2610475,0.4100125,0.8572893,307.6647,329.6849,172.7698,,127.6647,149.6849,-7.2302,,-9.527124752,154.9821416,-18.14011188,,-69.75633274,-257.7091605,255.5136512,369.5499741,,-36.1166875,-265.9007571,251.6118248,367.8534193,,,,,,,,,,,,,,,,,,,,,,,,,,,,,,,
3.489763,1.845241,1.814207,-1.996091,0.1499589,-0.2832996,0.4266389,0.8457144,306.2353,323.5455,178.8453,,126.2353,143.5455,-1.1547,,-8.097724752,148.8427416,-12.06461188,,-47.88480453,-296.520776,289.8316088,417.3965579,,-15.3962224,-276.4193612,261.6559649,380.9311629,,,,,,,,,,,,,,,,,,,,,,,,,,,,,,,
3.512187,1.839021,1.815539,-2.020239,0.1285176,-0.3082119,0.44079,0.8331823,305.5372,316.4726,185.683,,125.5372,136.4726,5.683,,-7.399624752,141.7698416,-5.226911881,,-9.182748523,-335.0077567,320.2016227,463.5122426,,4.857642326,-281.1170193,264.2781592,385.8669728,,,,,,,,,,,,,,,,,,,,,,,,,,,,,,,
3.523733,1.835063,1.813961,-2.032792,0.1158257,-0.3231761,0.4460609,0.8265418,305.6846,312.3784,189.5564,,125.6846,132.3784,9.5564,,-7.547024752,137.6756416,-1.353511881,,18.45120836,-362.778706,347.5887565,502.7591672,,23.7200207,-281.2172842,261.8326581,384.9703121,,,,,,,,,,,,,,,,,,,,,,,,,,,,,,,
3.546218,1.829038,1.812277,-2.056122,0.08886534,-0.3522674,0.4588125,0.8108648,306.2273,304.0374,197.6443,,126.2273,124.0374,17.6443,,-8.089724752,129.3346416,6.734388119,,36.36685752,-383.1261078,370.1111626,533.9386065,,43.18103589,-281.4358416,261.0316708,386.2748606,,,,,,,,,,,,,,,,,,,,,,,,,,,,,,,
3.568359,1.821553,1.808404,-2.080633,0.06068761,-0.3826819,0.4734222,0.7910392,307.3033,295.2852,206.0694,,127.3033,115.2852,26.0694,,-9.165724752,120.5824416,15.15948812,,68.3451621,-392.4557059,374.3041833,546.6225059,,64.91721126,-280.0183682,259.2601284,387.0921661,,,,,,,,,,,,,,,,,,,,,,,,,,,,,,,
3.589934,1.814631,1.802795,-2.103391,0.03210426,-0.4138152,0.4868191,0.7685919,309.2039,286.8792,214.0109,,129.2039,106.8792,34.0109,,-11.06632475,112.1764416,23.10098812,,115.6160314,-365.0547412,343.3617765,514.3241588,,86.22999315,-270.8659028,250.2481355,378.7189965,,,,,,,,,,,,,,,,,,,,,,,,,,,,,,,
3.612257,1.806684,1.794254,-2.124763,-0.000172634,-0.4467774,0.4960154,0.7445527,312.3992,279.2784,221.1238,,132.3992,99.2784,41.1238,,-14.26162475,104.5756416,30.21388812,,153.5638972,-304.3369465,274.460769,437.6431894,,104.2685505,-254.3244218,234.6832914,361.4264648,,,,,,,,,,,,,,,,,,,,,,,,,,,,,,,
3.634386,1.798339,1.784491,-2.144052,-0.02847655,-0.4783239,0.500218,0.7212331,316.0281,273.3438,226.2198,,136.0281,93.3438,46.2198,,-17.89052475,98.64104158,35.30988812,,151.6425405,-225.482841,175.4745795,323.4645262,,113.5088545,-231.8953294,212.9892922,334.7000783,,,,,,,,,,,,,,,,,,,,,,,,,,,,,,,
3.645817,1.794117,1.778908,-2.151969,-0.03766656,-0.4923308,0.4995246,0.7118053,317.6204,271.2544,227.5991,,137.6204,91.2544,47.5991,,-19.48282475,96.55164158,36.68918812,,137.1940143,-166.6900017,115.1227205,244.6650669,,113.8093243,-205.1467288,185.598076,299.139413,,,,,,,,,,,,,,,,,,,,,,,,,,,,,,,
3.667868,1.785382,1.767324,-2.166107,-0.05642613,-0.5151551,0.4985446,0.694899,320.5993,267.9336,230.0155,,140.5993,87.9336,50.0155,,-22.46172475,93.23084158,39.10558812,,159.133761,-172.6214456,145.1037501,276.0014777,,111.1867106,-176.9419003,155.1346986,260.2646642,,,,,,,,,,,,,,,,,,,,,,,,,,,,,,,
3.690134,1.777452,1.75658,-2.176267,-0.0870377,-0.5409523,0.5028398,0.6685411,324.6779,263.5996,234.0373,,144.6779,83.5996,54.0373,,-26.54032475,88.89684158,43.12738812,,202.5851389,-165.9765554,150.9667687,302.2911191,,104.1144631,-144.226614,120.4931883,214.848193,,,,,,,,,,,,,,,,,,,,,,,,,,,,,,,
